{"groups": [{"status": "active", "site": "devsite", "street": "", "geo": {"lat": 40.586539600000002, "lng": -122.3916754}, "city": "Redding", "name": "GDG Redding", "country": "United States", "chapter_id": "1113001", "state": "CA", "gplus_id": "100013133625300141137", "group_type": "GDG"}, {"status": "active", "site": "devsite", "street": "", "geo": {"lat": 31.899636000000001, "lng": 35.204222999999999}, "city": "Ramallah", "name": "GDG Ramallah", "country": "Palestine", "chapter_id": "316001", "state": "", "gplus_id": "100029343608539262401", "group_type": "GDG"}, {"status": "active", "site": "devsite", "street": "", "geo": {"lat": 43.110716799999999, "lng": 12.3908279}, "city": "Perugia", "name": "GDG Perugia", "country": "Italy", "chapter_id": "1167001", "state": "", "gplus_id": "100029768638367982742", "group_type": "GDG"}, {"status": "active", "site": "devsite", "street": "", "geo": {"lat": 40.5852602, "lng": -105.084423}, "city": "Fort Collins", "name": "GDG Northern Colorado", "country": "United States", "chapter_id": "", "state": "Colorado", "gplus_id": "100148220005153084415", "group_type": "GDG"}, {"status": "active", "site": "devsite", "street": "", "geo": {"lat": 31.298886, "lng": 120.58531600000001}, "city": "Suzhou", "name": "GDG Suzhou", "country": "China", "chapter_id": "", "state": "", "gplus_id": "100160462017014431473", "group_type": "GDG"}, {"status": "incubating", "site": "devsite", "street": "", "geo": {"lat": 5.1443561000000004, "lng": 10.5239867}, "city": "Bangangt\u00e9", "name": "GDG Bangangt\u00e9", "country": "Cameroon", "chapter_id": "", "state": "", "gplus_id": "100229901424981095401", "group_type": "GDG"}, {"status": "active", "site": "devsite", "street": "", "geo": {"lat": 45.764043000000001, "lng": 4.8356589999999997}, "city": "Lyon", "name": "GDG Lyon Android", "country": "France", "chapter_id": "", "state": "", "gplus_id": "100234371859446651010", "group_type": "GDG"}, {"status": "active", "site": "devsite", "street": "", "geo": {"lat": 37.566535000000002, "lng": 126.9779692}, "city": "Seoul", "name": "GDG Soongsil University", "country": "South Korea", "chapter_id": "", "state": "", "gplus_id": "100263126816983481169", "group_type": "GDG"}, {"status": "active", "site": "devsite", "street": "", "geo": {"lat": 4.1666667000000004, "lng": 9.2333333}, "city": "Buea", "name": "GDG Buea", "country": "Cameroon", "chapter_id": "", "state": "", "gplus_id": "100289274059280359416", "group_type": "GDG"}, {"status": "active", "site": "devsite", "street": "", "geo": {"lat": 50.110922100000003, "lng": 8.6821266999999995}, "city": "Frankfurt am Main", "name": "GDG Rhein-Main", "country": "Germany", "chapter_id": "15", "state": "", "gplus_id": "100306385846086409727", "group_type": "GDG"}, {"status": "incubating", "site": "devsite", "street": "", "geo": {"lat": 4.8155539999999997, "lng": 7.0498441999999999}, "city": "Port Harcourt", "name": "GDG Port Harcourt", "country": "Nigeria", "chapter_id": "", "state": "", "gplus_id": "100461466728650662561", "group_type": "GDG"}, {"status": "active", "site": "devsite", "street": "", "geo": {"lat": 34.340149099999998, "lng": 134.04344359999999}, "city": "Kagawa", "name": "GDG Shikoku", "country": "Japan", "chapter_id": "6001", "state": "", "gplus_id": "100492277319600142326", "group_type": "GDG"}, {"status": "active", "site": "devsite", "street": "", "geo": {"lat": -1.2920659000000001, "lng": 36.821946199999999}, "city": "Nairobi", "name": "GDG University of Nairobi", "country": "Kenya", "chapter_id": "1119005", "state": "", "gplus_id": "100503895904326242391", "group_type": "GDG"}, {"status": "active", "site": "devsite", "street": "", "geo": {"lat": 36.746842200000003, "lng": -119.7725868}, "city": "Fresno", "name": "GDG Fresno High", "country": "United States", "chapter_id": "", "state": "CA", "gplus_id": "100507274365269226666", "group_type": "GDG"}, {"status": "active", "site": "devsite", "street": "", "geo": {"lat": 41.005270000000003, "lng": 28.976959999999998}, "city": "Istanbul", "name": "GDG Istanbul", "country": "Turkey", "chapter_id": "1022", "state": "", "gplus_id": "100514812580249787371", "group_type": "GDG"}, {"status": "active", "site": "devsite", "street": "", "geo": {"lat": -19.919067699999999, "lng": -43.938574699999997}, "city": "Belo Horizonte", "name": "GDG Belo Horizonte", "country": "Brazil", "chapter_id": "373001", "state": "", "gplus_id": "100517144772812557896", "group_type": "GDG"}, {"status": "active", "site": "devsite", "street": "", "geo": {"lat": 22.307309499999999, "lng": 73.181097600000001}, "city": "Vadodara", "name": "GDG Baroda", "country": "India", "chapter_id": "", "state": "Gujarat", "gplus_id": "100528365481290832342", "group_type": "GDG"}, {"status": "active", "site": "devsite", "street": "", "geo": {"lat": 48.856614, "lng": 2.3522219}, "city": "Paris", "name": "GDG Paris", "country": "France", "chapter_id": "1008", "state": "", "gplus_id": "100575125902423385750", "group_type": "GDG"}, {"status": "active", "site": "devsite", "street": "", "geo": {"lat": 48.212382099999999, "lng": 8.5059299999999993}, "city": "Dunningen", "name": "GDG Black Forest", "country": "Germany", "chapter_id": "656001", "state": "", "gplus_id": "100578803307384360500", "group_type": "GDG"}, {"status": "active", "site": "devsite", "street": "", "geo": {"lat": 43.082773799999998, "lng": -88.25247379999999}, "city": "Pewaukee", "name": "GDG Pewaukee", "country": "United States", "chapter_id": "", "state": "Wisconsin", "gplus_id": "100601560231507301687", "group_type": "GDG"}, {"status": "active", "site": "devsite", "street": "", "geo": {"lat": 53.3498053, "lng": -6.2603096999999996}, "city": "Dublin", "name": "GDG Dublin", "country": "Ireland", "chapter_id": "444002", "state": "", "gplus_id": "100633195306202271076", "group_type": "GDG"}, {"status": "active", "site": "devsite", "street": "", "geo": {"lat": 40.183332999999998, "lng": 44.516666999999998}, "city": "Yerevan", "name": "GDG Armenia", "country": "Armenia", "chapter_id": "684001", "state": "", "gplus_id": "100661890326950838722", "group_type": "GDG"}, {"status": "incubating", "site": "devsite", "street": "", "geo": {"lat": 36.834046999999998, "lng": -2.4637136000000002}, "city": "Almeria", "name": "GDG Almeria", "country": "Spain", "chapter_id": "", "state": "Andalucia", "gplus_id": "100779332357161488372", "group_type": "GDG"}, {"status": "active", "site": "devsite", "street": "", "geo": {"lat": 49.452030000000001, "lng": 11.076750000000001}, "city": "Nuremberg", "name": "GTUG Nuremberg", "country": "Germany", "chapter_id": "51001", "state": "", "gplus_id": "100780146772848229478", "group_type": "GDG"}, {"status": "active", "site": "devsite", "street": "Universidad Nacional", "geo": {"lat": 4.6382235999999999, "lng": -74.084352299999992}, "city": "Bogota", "name": "GDG UN", "country": "Colombia", "chapter_id": "", "state": "", "gplus_id": "100780255782986466579", "group_type": "GDG"}, {"status": "active", "site": "devsite", "street": "", "geo": {"lat": 10.5166667, "lng": 7.4333332999999993}, "city": "Kaduna", "name": "GDG Kaduna", "country": "Nigeria", "chapter_id": "", "state": "Kaduna", "gplus_id": "100822278527605598097", "group_type": "GDG"}, {"status": "active", "site": "devsite", "street": "", "geo": {"lat": 43.255057999999998, "lng": 76.912627999999998}, "city": "Almaty", "name": "GTUG Almaty", "country": "Kazakhstan", "chapter_id": "807002", "state": "", "gplus_id": "100893943920756626864", "group_type": "GDG"}, {"status": "incubating", "site": "devsite", "street": "VIT VelloreKatpadi, Vellore, Tamil Nadu", "geo": {"lat": 12.975617400000001, "lng": 79.160585299999994}, "city": "Vellore", "name": "GDG VIT Vellore", "country": "India", "chapter_id": "", "state": "Tamil Nadu", "gplus_id": "101018908043689071742", "group_type": "GDG"}, {"status": "active", "site": "devsite", "street": "", "geo": {"lat": 28.0870967, "lng": 30.761839699999999}, "city": "Minia", "name": "GDG Minia", "country": "Egypt", "chapter_id": "1006001", "state": "", "gplus_id": "101086252616615295839", "group_type": "GDG"}, {"status": "active", "site": "devsite", "street": "", "geo": {"lat": 22.572645999999999, "lng": 88.363895000000014}, "city": "Kolkata", "name": "GDG Kolkata", "country": "India", "chapter_id": "", "state": "", "gplus_id": "101088239935634377703", "group_type": "GDG"}, {"status": "active", "site": "devsite", "street": "", "geo": {"lat": 35.832980900000003, "lng": 10.63875}, "city": "Sousse ", "name": "GDG Sousse ", "country": "Tunisia", "chapter_id": "", "state": "", "gplus_id": "101281981512157769860", "group_type": "GDG"}, {"status": "active", "site": "devsite", "street": "", "geo": {"lat": 13.3464069, "lng": 74.788575999999992}, "city": "Manipal", "name": "GDG Manipal", "country": "India", "chapter_id": "809001", "state": "", "gplus_id": "101309722229928080208", "group_type": "GDG"}, {"status": "active", "site": "devsite", "street": "", "geo": {"lat": -6.7236699999999994, "lng": 146.990906}, "city": "Lae", "name": "GDG Lae PNG", "country": "Papua New Guinea", "chapter_id": "", "state": "", "gplus_id": "101343249219699029221", "group_type": "GDG"}, {"status": "active", "site": "devsite", "street": "", "geo": {"lat": -29.9929703, "lng": -51.200962099999998}, "city": "Norte RS", "name": "GDG Norte RS", "country": "Brazil", "chapter_id": "", "state": "", "gplus_id": "101364451245043454367", "group_type": "GDG"}, {"status": "active", "site": "devsite", "street": "", "geo": {"lat": 12.364637, "lng": -1.5338639000000001}, "city": "Ouagadougou", "name": "GDG Ouaga", "country": "Burkina Faso", "chapter_id": "1138003", "state": "", "gplus_id": "101369019264322727362", "group_type": "GDG"}, {"status": "active", "site": "devsite", "street": "", "geo": {"lat": 5.4500000000000002, "lng": 10.066666700000001}, "city": "Dschang", "name": "GDG Dschang", "country": "Cameroon", "chapter_id": "", "state": "", "gplus_id": "101390700541925663340", "group_type": "GDG"}, {"status": "active", "site": "devsite", "street": "", "geo": {"lat": 18.084060900000001, "lng": -15.97842}, "city": "Nouakchott", "name": "GDG Nouakchott", "country": "Mauritania", "chapter_id": "", "state": "", "gplus_id": "101418494167802969097", "group_type": "GDG"}, {"status": "active", "site": "devsite", "street": "", "geo": {"lat": 43.653225999999997, "lng": -79.383184299999996}, "city": "Toronto", "name": "GDG Toronto", "country": "Canada", "chapter_id": "9", "state": "", "gplus_id": "101500591883570718544", "group_type": "GDG"}, {"status": "active", "site": "devsite", "street": "", "geo": {"lat": 32.840694599999999, "lng": -83.632402200000001}, "city": "Macon", "name": "GDG Mercer University", "country": "United States", "chapter_id": "1166002", "state": "GA", "gplus_id": "101531296246680447894", "group_type": "GDG"}, {"status": "active", "site": "devsite", "street": "", "geo": {"lat": 36.350000000000001, "lng": 6.5999999999999996}, "city": "Constantine", "name": "GDG Constantine", "country": "Algeria", "chapter_id": "", "state": "", "gplus_id": "101556765537015011111", "group_type": "GDG"}, {"status": "active", "site": "devsite", "street": "", "geo": {"lat": 12.0, "lng": 8.516667}, "city": "Kano", "name": "GDG BUK", "country": "Nigeria", "chapter_id": "", "state": "Kano", "gplus_id": "101561674681942684865", "group_type": "GDG"}, {"status": "active", "site": "devsite", "street": "", "geo": {"lat": 34.052234200000001, "lng": -118.24368490000001}, "city": "Los Angeles", "name": "GDG Los Angeles", "country": "United States", "chapter_id": "37", "state": "CA", "gplus_id": "101561695751862652895", "group_type": "GDG"}, {"status": "incubating", "site": "devsite", "street": "Pondicherry, India", "geo": {"lat": 11.913859800000001, "lng": 79.814472199999997}, "city": "Pondicherry", "name": "GDG Pondicherry", "country": "India", "chapter_id": "", "state": "Puducherry", "gplus_id": "101563311260295245948", "group_type": "GDG"}, {"status": "incubating", "site": "devsite", "street": "", "geo": {"lat": -21.762423699999999, "lng": -43.343399900000001}, "city": "Juiz de Fora", "name": "GDG Juiz de Fora", "country": "Brazil", "chapter_id": "", "state": "MG", "gplus_id": "101567513255448590336", "group_type": "GDG"}, {"status": "active", "site": "devsite", "street": "", "geo": {"lat": 18.5, "lng": -69.983333299999998}, "city": "Santo Domingo", "name": "GDG Santo Domingo", "country": "Dominican Republic", "chapter_id": "", "state": "", "gplus_id": "101585293573808603734", "group_type": "GDG"}, {"status": "incubating", "site": "devsite", "street": "", "geo": {"lat": 5.7166666999999993, "lng": 10.9166667}, "city": "Foumban", "name": "GDG Foumban", "country": "Cameroon", "chapter_id": "", "state": "", "gplus_id": "101655900172336891178", "group_type": "GDG"}, {"status": "active", "site": "devsite", "street": "", "geo": {"lat": 36.902858999999999, "lng": 7.7555429999999994}, "city": "Annaba", "name": "GDG Annaba", "country": "Algeria", "chapter_id": "1138002", "state": "", "gplus_id": "101747368053460084109", "group_type": "GDG"}, {"status": "active", "site": "devsite", "street": "", "geo": {"lat": 39.695262900000003, "lng": 3.0175711999999999}, "city": "Mallorca", "name": "GDG Mallorca", "country": "Spain", "chapter_id": "", "state": "", "gplus_id": "101769406777537927870", "group_type": "GDG"}, {"status": "active", "site": "devsite", "street": "", "geo": {"lat": 31.768319000000002, "lng": 35.213709999999999}, "city": "Jerusalem", "name": "GDG Jerusalem", "country": "Israel", "chapter_id": "", "state": "", "gplus_id": "101779847320686747978", "group_type": "GDG"}, {"status": "active", "site": "devsite", "street": "", "geo": {"lat": 13.36866, "lng": 103.864403}, "city": "Siem Reap", "name": "GDG Siem Reap", "country": "Cambodia", "chapter_id": "", "state": "", "gplus_id": "101837612116231328319", "group_type": "GDG"}, {"status": "active", "site": "devsite", "street": "", "geo": {"lat": 48.390394000000001, "lng": -4.4860759999999997}, "city": "Brest", "name": "GDG Finist", "country": "France", "chapter_id": "", "state": "", "gplus_id": "101840695633864958385", "group_type": "GDG"}, {"status": "active", "site": "devsite", "street": "", "geo": {"lat": 22.8045665, "lng": 86.202875399999996}, "city": "Jamshedpur,Jharkhand", "name": "GDG Jamshedpur", "country": "India", "chapter_id": "", "state": "Jharkhand", "gplus_id": "101845951117978558616", "group_type": "GDG"}, {"status": "active", "site": "devsite", "street": "", "geo": {"lat": -37.201728500000002, "lng": -59.841069699999991}, "city": "Buenos Aires", "name": "GDG Buenos Aires", "country": "Argentina", "chapter_id": "1039", "state": "Buenos Aires", "gplus_id": "101861051374826910556", "group_type": "GDG"}, {"status": "active", "site": "devsite", "street": "", "geo": {"lat": 31.9565783, "lng": 35.945695100000002}, "city": "Amman", "name": "GDG Amman", "country": "Jordan", "chapter_id": "606001", "state": "", "gplus_id": "101896497448037001660", "group_type": "GDG"}, {"status": "active", "site": "devsite", "street": "", "geo": {"lat": 50.822530000000008, "lng": -0.13716300000000001}, "city": "Brighton", "name": "GDG Brighton", "country": "United Kingdom", "chapter_id": "", "state": "", "gplus_id": "101927643292109439680", "group_type": "GDG"}, {"status": "active", "site": "devsite", "street": "", "geo": {"lat": 63.430514899999999, "lng": 10.3950528}, "city": "Trondheim", "name": "GDG Trondheim", "country": "Norway", "chapter_id": "", "state": "", "gplus_id": "101944659089375424466", "group_type": "GDG"}, {"status": "active", "site": "devsite", "street": "", "geo": {"lat": 22.396428, "lng": 114.109497}, "city": "Hong Kong", "name": "GDG Hong Kong", "country": "China", "chapter_id": "28007", "state": "", "gplus_id": "101989816978489369807", "group_type": "GDG"}, {"status": "active", "site": "devsite", "street": "", "geo": {"lat": 40.7143528, "lng": -74.005973099999991}, "city": "New York", "name": "GDG New York", "country": "United States", "chapter_id": "1032", "state": "NY", "gplus_id": "102033742326416578905", "group_type": "GDG"}, {"status": "active", "site": "devsite", "street": "", "geo": {"lat": -32.890183, "lng": -68.844049799999993}, "city": "Mendoza", "name": "GDG Mendoza", "country": "Argentina", "chapter_id": "1110002", "state": "", "gplus_id": "102188429092915191370", "group_type": "GDG"}, {"status": "active", "site": "devsite", "street": "", "geo": {"lat": 33.806579900000003, "lng": 2.8780250000000001}, "city": "Laghouat", "name": "GDG Laghouat", "country": "Algeria", "chapter_id": "", "state": "", "gplus_id": "102225135349773069615", "group_type": "GDG"}, {"status": "incubating", "site": "devsite", "street": "", "geo": {"lat": -10.249091, "lng": -48.324285800000013}, "city": "Palmas", "name": "GDG Palmas", "country": "Brazil", "chapter_id": "", "state": "TO", "gplus_id": "102225587298667425761", "group_type": "GDG"}, {"status": "active", "site": "devsite", "street": "", "geo": {"lat": 23.609999999999999, "lng": 58.539999999999999}, "city": "Muscat", "name": "GDG Muscat", "country": "Oman", "chapter_id": "1099005", "state": "", "gplus_id": "102255374810033870142", "group_type": "GDG"}, {"status": "active", "site": "devsite", "street": "", "geo": {"lat": 44.820555599999999, "lng": 20.462222199999999}, "city": "Belgrade", "name": "GDG Beograd", "country": "Serbia", "chapter_id": "", "state": "", "gplus_id": "102283932822829287329", "group_type": "GDG"}, {"status": "active", "site": "devsite", "street": "", "geo": {"lat": 37.276260000000001, "lng": 9.8730709999999995}, "city": "Bizerte", "name": "GDG Bizerte", "country": "Tunisia", "chapter_id": "", "state": "", "gplus_id": "102300301759143791078", "group_type": "GDG"}, {"status": "active", "site": "devsite", "street": "", "geo": {"lat": 33.893268900000002, "lng": 10.10291}, "city": "Gabes", "name": "GDG Gabes", "country": "Tunisia", "chapter_id": "", "state": "", "gplus_id": "102315261968126189906", "group_type": "GDG"}, {"status": "active", "site": "devsite", "street": "", "geo": {"lat": 50.034309200000003, "lng": 15.7811994}, "city": "Pardubice", "name": "GDG Pardubice", "country": "Czech Republic", "chapter_id": "", "state": "", "gplus_id": "102347293314420788085", "group_type": "GDG"}, {"status": "active", "site": "devsite", "street": "", "geo": {"lat": 12.0, "lng": 8.516667}, "city": "Kano", "name": "GDG Kano", "country": "Nigeria", "chapter_id": "", "state": "", "gplus_id": "102360788478802698105", "group_type": "GDG"}, {"status": "active", "site": "devsite", "street": "", "geo": {"lat": 49.839683000000001, "lng": 24.029717000000002}, "city": "Lviv", "name": "GDG Lviv", "country": "Ukraine", "chapter_id": "Not listed", "state": "", "gplus_id": "102444623953913144164", "group_type": "GDG"}, {"status": "active", "site": "devsite", "street": "", "geo": {"lat": 52.519171, "lng": 13.406091200000001}, "city": "Berlin", "name": "GDG Berlin Android", "country": "Germany", "chapter_id": "New GDG", "state": "", "gplus_id": "102464661817600154044", "group_type": "GDG"}, {"status": "active", "site": "devsite", "street": "", "geo": {"lat": 54.988742199999997, "lng": 73.369265400000003}, "city": "Omsk", "name": "GDG Omsk", "country": "Russia", "chapter_id": "874013", "state": "", "gplus_id": "102520175692033125056", "group_type": "GDG"}, {"status": "active", "site": "devsite", "street": "", "geo": {"lat": 36.188980000000001, "lng": 5.4144160000000001}, "city": "Setif", "name": "GDG Setif", "country": "Algeria", "chapter_id": "", "state": "", "gplus_id": "102526756749031062154", "group_type": "GDG"}, {"status": "incubating", "site": "devsite", "street": "", "geo": {"lat": 6.3175999999999997, "lng": 5.6144999999999996}, "city": "Benin", "name": "GDG Benin", "country": "Nigeria", "chapter_id": "", "state": "Edo", "gplus_id": "102541424647802000372", "group_type": "GDG"}, {"status": "active", "site": "devsite", "street": "", "geo": {"lat": 7.024267, "lng": 122.1889035}, "city": "Zamboanga City", "name": "GDG Zamboanga", "country": "Philippines", "chapter_id": "395001", "state": "", "gplus_id": "102615103919428587748", "group_type": "GDG"}, {"status": "incubating", "site": "devsite", "street": "", "geo": {"lat": 38.994349, "lng": -1.8585423999999999}, "city": "Albacete", "name": "GDG Albacete", "country": "Spain", "chapter_id": "", "state": "Castilla la Mancha", "gplus_id": "102621042210157682440", "group_type": "GDG"}, {"status": "active", "site": "devsite", "street": "", "geo": {"lat": 36.815128999999999, "lng": 127.11389389999999}, "city": "Cheonan", "name": "GDG Cheonan&Asan", "country": "South Korea", "chapter_id": "", "state": "", "gplus_id": "102667177107352156304", "group_type": "GDG"}, {"status": "active", "site": "devsite", "street": "", "geo": {"lat": 55.604981000000002, "lng": 13.003822}, "city": "Malmo", "name": "GDG Malmo", "country": "Sweden", "chapter_id": "", "state": "Sk\u00e5ne County", "gplus_id": "102692687851750130212", "group_type": "GDG"}, {"status": "active", "site": "devsite", "street": "", "geo": {"lat": -15.4907222, "lng": -70.127083299999995}, "city": "Juliaca", "name": "GDG Juliaca", "country": "Peru", "chapter_id": "", "state": "", "gplus_id": "102722169890573186657", "group_type": "GDG"}, {"status": "active", "site": "devsite", "street": "", "geo": {"lat": 5.4999756999999994, "lng": 10.3968966}, "city": "Bamenda", "name": "GDG Bamenda", "country": "Cameroon", "chapter_id": "", "state": "North West Region", "gplus_id": "102744942792583044503", "group_type": "GDG"}, {"status": "active", "site": "devsite", "street": "", "geo": {"lat": 47.026858999999988, "lng": 28.841550999999999}, "city": "Chisinau", "name": "GDG Moldova", "country": "Moldova", "chapter_id": "Not listed", "state": "", "gplus_id": "102745134847043369252", "group_type": "GDG"}, {"status": "active", "site": "devsite", "street": "", "geo": {"lat": 25.435801099999999, "lng": 81.846311}, "city": "Allahabad,Uttar Pradesh", "name": "GDG Allahabad", "country": "India", "chapter_id": "", "state": "Uttar Pradesh", "gplus_id": "102753048484564707718", "group_type": "GDG"}, {"status": "active", "site": "devsite", "street": "", "geo": {"lat": -23.548943300000001, "lng": -46.638818200000003}, "city": "S\u00e3o Paulo", "name": "GDG S\u00e3o Paulo", "country": "Brazil", "chapter_id": "7", "state": "", "gplus_id": "102774871279745079139", "group_type": "GDG"}, {"status": "active", "site": "devsite", "street": "", "geo": {"lat": 19.318889500000001, "lng": -99.184367600000002}, "city": "Mexico City UNAM", "name": "GDG UNAM", "country": "Mexico", "chapter_id": "Not listed", "state": "", "gplus_id": "102798504986036041699", "group_type": "GDG"}, {"status": "active", "site": "devsite", "street": "", "geo": {"lat": 40.434950399999998, "lng": 49.867623199999997}, "city": "Baku", "name": "GDG Baku", "country": "Azerbaijan", "chapter_id": "964001", "state": "", "gplus_id": "102837213494690866182", "group_type": "GDG"}, {"status": "active", "site": "devsite", "street": "", "geo": {"lat": -0.41687600000000002, "lng": 36.950980999999999}, "city": "Nyeri", "name": "GDG Kimathi University", "country": "Kenya", "chapter_id": "", "state": "", "gplus_id": "102852233334332438474", "group_type": "GDG"}, {"status": "active", "site": "devsite", "street": "", "geo": {"lat": 25.091075, "lng": 121.55983449999999}, "city": "Taipei", "name": "GTUG Taipei", "country": "Taiwan", "chapter_id": "29", "state": "", "gplus_id": "102856404121776431606", "group_type": "GDG"}, {"status": "active", "site": "devsite", "street": "", "geo": {"lat": 47.677949599999998, "lng": 9.1732383999999989}, "city": "Konstanz", "name": "GTUG Lake Constance", "country": "Germany", "chapter_id": "476001", "state": "", "gplus_id": "102863795915305230399", "group_type": "GDG"}, {"status": "active", "site": "devsite", "street": "", "geo": {"lat": 35.045629699999999, "lng": -85.309680099999994}, "city": "Chattanooga", "name": "GDG Gigcity", "country": "United States", "chapter_id": "", "state": "Tennessee", "gplus_id": "102911015778633923479", "group_type": "GDG"}, {"status": "incubating", "site": "devsite", "street": "", "geo": {"lat": 5.2632341000000009, "lng": 100.4846227}, "city": "Penang", "name": "GDG George Town", "country": "Malaysia", "chapter_id": "", "state": "", "gplus_id": "102968867240239754111", "group_type": "GDG"}, {"status": "active", "site": "devsite", "street": "", "geo": {"lat": 31.54505, "lng": 74.340682999999999}, "city": "Lahore", "name": "GDG Lahore", "country": "Pakistan", "chapter_id": "", "state": "", "gplus_id": "103213081527235087923", "group_type": "GDG"}, {"status": "active", "site": "devsite", "street": "", "geo": {"lat": 6.8566666999999999, "lng": 7.3958332999999996}, "city": "Nsukka", "name": "GDG UNN", "country": "Nigeria", "chapter_id": "", "state": "Enugu", "gplus_id": "103213619815541904969", "group_type": "GDG"}, {"status": "active", "site": "devsite", "street": "", "geo": {"lat": 28.291955699999999, "lng": -81.40757099999999}, "city": "Kissimmee", "name": "GDG Central Florida", "country": "United States", "chapter_id": "", "state": "Florida", "gplus_id": "103230977474494232033", "group_type": "GDG"}, {"status": "active", "site": "devsite", "street": "", "geo": {"lat": 43.464257799999999, "lng": -80.520409599999994}, "city": "Waterloo", "name": "GDG Waterloo", "country": "Canada", "chapter_id": "", "state": "Ontario", "gplus_id": "103256143346904935564", "group_type": "GDG"}, {"status": "active", "site": "devsite", "street": "", "geo": {"lat": 49.055188000000001, "lng": 20.301432800000001}, "city": "Poprad", "name": "GDG Poprad-Tatry", "country": "Slovakia", "chapter_id": "", "state": "", "gplus_id": "103280667737160014426", "group_type": "GDG"}, {"status": "active", "site": "devsite", "street": "", "geo": {"lat": 36.807777799999997, "lng": 10.101111100000001}, "city": "La Manouba", "name": "GDG Manouba", "country": "Tunisia", "chapter_id": "", "state": "", "gplus_id": "103293774099802943268", "group_type": "GDG"}, {"status": "active", "site": "devsite", "street": "", "geo": {"lat": 36.1666667, "lng": -86.783333299999995}, "city": "Nashville", "name": "GDG Music City Nashville", "country": "United States", "chapter_id": "", "state": "Tennessee", "gplus_id": "103388169671325157635", "group_type": "GDG"}, {"status": "active", "site": "devsite", "street": "Egnatia 154", "geo": {"lat": 40.627663699999999, "lng": 22.955075799999999}, "city": "Thessaloniki", "name": "GDG Thessaloniki", "country": "Greece", "chapter_id": "", "state": "", "gplus_id": "103424383114732336071", "group_type": "GDG"}, {"status": "active", "site": "devsite", "street": "", "geo": {"lat": 35.777180000000001, "lng": 10.8261}, "city": "Monastir", "name": "GDG Monastir", "country": "Tunisia", "chapter_id": "", "state": "", "gplus_id": "103429150782052657644", "group_type": "GDG"}, {"status": "incubating", "site": "devsite", "street": "", "geo": {"lat": 39.739072100000001, "lng": -75.539787799999999}, "city": "Wilmington", "name": "GDG Wilmington", "country": "United States", "chapter_id": "", "state": "DE", "gplus_id": "103440778458076963559", "group_type": "GDG"}, {"status": "active", "site": "devsite", "street": "", "geo": {"lat": 15.4589236, "lng": 75.007807999999997}, "city": "Dharwad", "name": "GDG Dharwad", "country": "India", "chapter_id": "1129007", "state": "", "gplus_id": "103466449312386544864", "group_type": "GDG"}, {"status": "active", "site": "devsite", "street": "", "geo": {"lat": 49.261226000000001, "lng": -123.1139268}, "city": "Vancouver", "name": "GDG Vancouver", "country": "Canada", "chapter_id": "", "state": "British Columbia", "gplus_id": "103506027304503041403", "group_type": "GDG"}, {"status": "incubating", "site": "devsite", "street": "", "geo": {"lat": 46.803282600000003, "lng": -71.242795999999998}, "city": "Qu\u00e9bec", "name": "GDG Qu\u00e9bec", "country": "Canada", "chapter_id": "", "state": "Quebec", "gplus_id": "103597553768720496529", "group_type": "GDG"}, {"status": "active", "site": "devsite", "street": "", "geo": {"lat": 20.2960587, "lng": 85.824539799999997}, "city": "Bhubaneswar,Orissa", "name": "GDG Bhubaneswar", "country": "India", "chapter_id": "", "state": "orissa", "gplus_id": "103634831911213383878", "group_type": "GDG"}, {"status": "active", "site": "devsite", "street": "", "geo": {"lat": 7.1608332999999993, "lng": 3.3483333000000002}, "city": "Abeokuta", "name": "GDG FUNAAB", "country": "Nigeria", "chapter_id": "", "state": "Ogun", "gplus_id": "103664297074109377242", "group_type": "GDG"}, {"status": "active", "site": "devsite", "street": "", "geo": {"lat": 34.6666667, "lng": 3.25}, "city": "Djelfa", "name": "GDG Djelfa", "country": "Algeria", "chapter_id": "", "state": "", "gplus_id": "103686427061200566787", "group_type": "GDG"}, {"status": "active", "site": "devsite", "street": "", "geo": {"lat": 36.266666700000002, "lng": 2.75}, "city": "M\u00e9d\u00e9a", "name": "GDG Medea", "country": "Algeria", "chapter_id": "", "state": "", "gplus_id": "103688288835651841695", "group_type": "GDG"}, {"status": "active", "site": "devsite", "street": "", "geo": {"lat": 31.200092399999999, "lng": 29.918738699999999}, "city": "Alexandria", "name": "GDG Alexandria", "country": "Egypt", "chapter_id": "679001", "state": "", "gplus_id": "103706763079402130148", "group_type": "GDG"}, {"status": "active", "site": "devsite", "street": "", "geo": {"lat": 42.6978388, "lng": 23.321669700000001}, "city": "Sofia", "name": "GDG Sofia", "country": "Bulgaria", "chapter_id": "", "state": "", "gplus_id": "103744570226888926347", "group_type": "GDG"}, {"status": "active", "site": "devsite", "street": "Champs-\u00c9lys\u00e9es", "geo": {"lat": 48.865784400000003, "lng": 2.3073141000000001}, "city": "Paris", "name": "GDG Paris Android", "country": "France", "chapter_id": "", "state": "", "gplus_id": "103781206198600111125", "group_type": "GDG"}, {"status": "active", "site": "devsite", "street": "", "geo": {"lat": 31.441229499999999, "lng": 31.536447800000001}, "city": "Jamasah, Daqahlia", "name": "GDG Delta University", "country": "Egypt", "chapter_id": "", "state": "", "gplus_id": "103794441320864829952", "group_type": "GDG"}, {"status": "incubating", "site": "devsite", "street": "Preslova 25, 150 00 Praha", "geo": {"lat": 50.075360199999999, "lng": 14.4054497}, "city": "Prague", "name": "GDG SSP\u0160", "country": "Czech Republic", "chapter_id": "", "state": "", "gplus_id": "103833823039619688544", "group_type": "GDG"}, {"status": "active", "site": "devsite", "street": "", "geo": {"lat": 41.387917000000002, "lng": 2.1699187000000002}, "city": "Barcelona", "name": "GDG Barcelona", "country": "Spain", "chapter_id": "", "state": "", "gplus_id": "103861605362659114750", "group_type": "GDG"}, {"status": "active", "site": "devsite", "street": "", "geo": {"lat": 30.044419600000001, "lng": 31.235711599999998}, "city": "Cairo", "name": "GDG Cairo", "country": "Egypt", "chapter_id": "95001", "state": "", "gplus_id": "103937762129552579908", "group_type": "GDG"}, {"status": "active", "site": "devsite", "street": "", "geo": {"lat": 27.950575000000001, "lng": -82.457177599999994}, "city": "Tampa", "name": "GDG Sun Coast", "country": "United States", "chapter_id": "", "state": "Florida", "gplus_id": "103948420531198832035", "group_type": "GDG"}, {"status": "active", "site": "devsite", "street": "", "geo": {"lat": 28.083626899999999, "lng": -80.608108899999991}, "city": "Melbourne", "name": "GDG Space Coast", "country": "United States", "chapter_id": "", "state": "Florida", "gplus_id": "103959793061819610212", "group_type": "GDG"}, {"status": "active", "site": "devsite", "street": "", "geo": {"lat": 27.699999999999999, "lng": 85.333333299999993}, "city": "Kathmandu", "name": "GDG Kathmandu", "country": "Nepal", "chapter_id": "817003", "state": "", "gplus_id": "104003514155874791868", "group_type": "GDG"}, {"status": "active", "site": "devsite", "street": "", "geo": {"lat": 37.4562557, "lng": 126.70520620000001}, "city": "Incheon", "name": "GDG Incheon", "country": "South Korea", "chapter_id": "", "state": "", "gplus_id": "104016865264341661281", "group_type": "GDG"}, {"status": "active", "site": "devsite", "street": "", "geo": {"lat": 1.2800944999999999, "lng": 103.85094909999999}, "city": "Singapore", "name": "GDG Singapore", "country": "Singapore", "chapter_id": "1043", "state": "", "gplus_id": "104039540126619554508", "group_type": "GDG"}, {"status": "active", "site": "devsite", "street": "", "geo": {"lat": 32.890141, "lng": -6.9067449999999999}, "city": "Khouribga", "name": "GDG Khouribga", "country": "Morocco", "chapter_id": "", "state": "", "gplus_id": "104065274520395208832", "group_type": "GDG"}, {"status": "active", "site": "devsite", "street": "", "geo": {"lat": 47.218370999999998, "lng": -1.5536209999999999}, "city": "Nantes", "name": "GDG Nantes", "country": "France", "chapter_id": "766002", "state": "", "gplus_id": "104080355394243371522", "group_type": "GDG"}, {"status": "active", "site": "devsite", "street": "", "geo": {"lat": 45.541187499999999, "lng": 10.219443699999999}, "city": "Brescia", "name": "GDG Brescia", "country": "Italy", "chapter_id": "", "state": "", "gplus_id": "104091916976470214422", "group_type": "GDG"}, {"status": "incubating", "site": "devsite", "street": "", "geo": {"lat": 4.9500000000000002, "lng": 8.3249999999999993}, "city": "Calabar", "name": "GDG Calabar", "country": "Nigeria", "chapter_id": "", "state": "", "gplus_id": "104102236676361936871", "group_type": "GDG"}, {"status": "active", "site": "devsite", "street": "Barnabas Rd", "geo": {"lat": 0.30253089999999999, "lng": 32.609387599999998}, "city": "Kampala", "name": "GDG IHSU", "country": "Uganda", "chapter_id": "", "state": "", "gplus_id": "104128689228443567430", "group_type": "GDG"}, {"status": "active", "site": "devsite", "street": "", "geo": {"lat": 60.449324799999999, "lng": 22.259231}, "city": "Turku", "name": "GDG Turku", "country": "Finland", "chapter_id": "", "state": "", "gplus_id": "104160757374093748818", "group_type": "GDG"}, {"status": "active", "site": "devsite", "street": "Avenue Lulangunu", "geo": {"lat": -11.634333, "lng": 27.496070700000001}, "city": "Lubumbashi", "name": "GDG Lubum", "country": "Congo, DRC", "chapter_id": "", "state": "", "gplus_id": "104203731941109249273", "group_type": "GDG"}, {"status": "active", "site": "devsite", "street": "", "geo": {"lat": 32.085299900000003, "lng": 34.781767599999988}, "city": "Tel Aviv", "name": "GDG Tel Aviv", "country": "Israel", "chapter_id": "61008", "state": "", "gplus_id": "104207746710491978555", "group_type": "GDG"}, {"status": "active", "site": "devsite", "street": "", "geo": {"lat": 42.358430800000001, "lng": -71.059773199999995}, "city": "Boston", "name": "GDG Boston", "country": "United States", "chapter_id": "38", "state": "MA", "gplus_id": "104210617698082698436", "group_type": "GDG"}, {"status": "active", "site": "devsite", "street": "7 Rue de l'H\u00f4tel Karibu", "geo": {"lat": -1.6641737000000001, "lng": 29.182892599999999}, "city": "Goma", "name": "GDG Goma", "country": "Congo, DRC", "chapter_id": "1083001", "state": "", "gplus_id": "104230377423943333420", "group_type": "GDG"}, {"status": "active", "site": "devsite", "street": "", "geo": {"lat": 47.606209499999999, "lng": -122.3320708}, "city": "Seattle", "name": "GDG Seattle", "country": "United States", "chapter_id": "4002", "state": "WA", "gplus_id": "104304419342230315027", "group_type": "GDG"}, {"status": "active", "site": "devsite", "street": "", "geo": {"lat": -22.907104799999999, "lng": -47.063239099999997}, "city": "Campinas", "name": "GDG Campinas", "country": "Brazil", "chapter_id": "3", "state": "SP", "gplus_id": "104323881166104132817", "group_type": "GDG"}, {"status": "active", "site": "devsite", "street": "", "geo": {"lat": 35.110703000000001, "lng": -106.60999099999999}, "city": "Albuquerque", "name": "GDG Albuquerque", "country": "United States", "chapter_id": "", "state": "NM", "gplus_id": "104324957573179054979", "group_type": "GDG"}, {"status": "active", "site": "devsite", "street": "", "geo": {"lat": 36.818809999999999, "lng": 10.16596}, "city": "Tunis", "name": "GDG Women Tunis", "country": "Tunisia", "chapter_id": "", "state": "", "gplus_id": "104340188597155101324", "group_type": "GDG"}, {"status": "active", "site": "devsite", "street": "", "geo": {"lat": 33.748995399999998, "lng": -84.387982399999999}, "city": "Atlanta", "name": "GDG North Atlanta", "country": "United States", "chapter_id": "", "state": "Georgia", "gplus_id": "104371898142246724995", "group_type": "GDG"}, {"status": "active", "site": "devsite", "street": "", "geo": {"lat": 0.31361109999999998, "lng": 32.581111100000001}, "city": "Kampala", "name": " GDG SLAU", "country": "Uganda", "chapter_id": "", "state": "", "gplus_id": "104400328660167590151", "group_type": "GDG"}, {"status": "active", "site": "devsite", "street": "", "geo": {"lat": -27.471225700000002, "lng": -58.839584400000007}, "city": "Corrientes", "name": "GDG Corrientes", "country": "Argentina", "chapter_id": "607001", "state": "", "gplus_id": "104405726609930425699", "group_type": "GDG"}, {"status": "incubating", "site": "devsite", "street": "", "geo": {"lat": -22.908299800000002, "lng": -43.197077299999997}, "city": "Rio de Janeiro", "name": "GDG Rio de Janeiro", "country": "Brazil", "chapter_id": "", "state": "RJ", "gplus_id": "104464728601797437216", "group_type": "GDG"}, {"status": "active", "site": "devsite", "street": "", "geo": {"lat": -7.2891660000000007, "lng": 112.734398}, "city": "Surabaya", "name": "GDG Surabaya", "country": "Indonesia", "chapter_id": "1197002", "state": "", "gplus_id": "104503803738113319590", "group_type": "GDG"}, {"status": "active", "site": "devsite", "street": "", "geo": {"lat": 45.062902200000003, "lng": 7.6784897000000001}, "city": "Turin", "name": "GDG Torino", "country": "Italy", "chapter_id": "", "state": "", "gplus_id": "104526335641251202320", "group_type": "GDG"}, {"status": "active", "site": "devsite", "street": "", "geo": {"lat": 12.971598699999999, "lng": 77.594562699999997}, "city": "Bangalore", "name": "GDG Bangalore", "country": "India", "chapter_id": "19", "state": "", "gplus_id": "104550553343399000979", "group_type": "GDG"}, {"status": "incubating", "site": "devsite", "street": "", "geo": {"lat": 36.7675962, "lng": 3.7029002000000002}, "city": "Boumerdes", "name": "GDG Boumerdes", "country": "Algeria", "chapter_id": "", "state": "", "gplus_id": "104572595370222794964", "group_type": "GDG"}, {"status": "active", "site": "devsite", "street": "", "geo": {"lat": 24.893378999999999, "lng": 67.0280609}, "city": "Karachi", "name": "GDG Karachi", "country": "Pakistan", "chapter_id": "993006", "state": "", "gplus_id": "104623905407895992587", "group_type": "GDG"}, {"status": "active", "site": "devsite", "street": "Ole Sangale Road", "geo": {"lat": -1.3069957000000001, "lng": 36.815542000000001}, "city": "Nairobi", "name": "GDG Strathmore", "country": "Kenya", "chapter_id": "", "state": "", "gplus_id": "104634437641684994172", "group_type": "GDG"}, {"status": "active", "site": "devsite", "street": "", "geo": {"lat": -6.211544, "lng": 106.84517200000001}, "city": "Jakarta", "name": "GDG Jakarta", "country": "Indonesia", "chapter_id": "", "state": "", "gplus_id": "104799774551163659431", "group_type": "GDG"}, {"status": "active", "site": "devsite", "street": "", "geo": {"lat": 59.939523700000002, "lng": 30.3120206}, "city": "Saint Petersburg", "name": "GDG St. Petersburg", "country": "Russia", "chapter_id": "48001", "state": "", "gplus_id": "104865069081866598581", "group_type": "GDG"}, {"status": "active", "site": "devsite", "street": "University of South Carolina", "geo": {"lat": 33.996111999999997, "lng": -81.027427599999996}, "city": "Columbia", "name": "GDG Columbia", "country": "United States", "chapter_id": "", "state": "SC", "gplus_id": "105017433922288840934", "group_type": "GDG"}, {"status": "active", "site": "devsite", "street": "", "geo": {"lat": 50.850339599999998, "lng": 4.3517102999999997}, "city": "Brussels", "name": "GTUG Brussels", "country": "Belgium", "chapter_id": "5002", "state": "", "gplus_id": "105068877693379070381", "group_type": "GDG"}, {"status": "active", "site": "devsite", "street": "", "geo": {"lat": 40.193376700000002, "lng": -85.386359900000002}, "city": "Muncie", "name": "GDG Muncie", "country": "United States", "chapter_id": "", "state": "IN", "gplus_id": "105076625948887697816", "group_type": "GDG"}, {"status": "active", "site": "devsite", "street": "", "geo": {"lat": 38.722252400000002, "lng": -9.1393366}, "city": "Lisbon", "name": "GDG Lisbon", "country": "Portugal", "chapter_id": "323001", "state": "", "gplus_id": "105135300456431065608", "group_type": "GDG"}, {"status": "active", "site": "devsite", "street": "", "geo": {"lat": 32.22504, "lng": 35.260970999999998}, "city": "Nablus", "name": "GDG Nablus", "country": "Palestine", "chapter_id": "1045003", "state": "", "gplus_id": "105147100639812067405", "group_type": "GDG"}, {"status": "active", "site": "devsite", "street": "Malindi Road", "geo": {"lat": -3.9889823999999998, "lng": 39.734667899999998}, "city": "Mombasa", "name": "GDG Mombasa", "country": "Kenya", "chapter_id": "156001", "state": "", "gplus_id": "105153400962376532068", "group_type": "GDG"}, {"status": "active", "site": "devsite", "street": "", "geo": {"lat": 35.779589700000002, "lng": -78.638178699999997}, "city": "Raleigh", "name": "GDG Research Triangle", "country": "United States", "chapter_id": "North Carolina ", "state": "NC", "gplus_id": "105162452149208177718", "group_type": "GDG"}, {"status": "active", "site": "devsite", "street": "", "geo": {"lat": 33.729388200000002, "lng": 73.093146099999998}, "city": "Islamabad", "name": "GDG Islamabad (Margalla) ", "country": "Pakistan", "chapter_id": "", "state": "", "gplus_id": "105183115622354692760", "group_type": "GDG"}, {"status": "active", "site": "devsite", "street": "", "geo": {"lat": 5.0499999999999998, "lng": 7.9333333000000001}, "city": "Uyo", "name": "GDG Uyo", "country": "Nigeria", "chapter_id": "904014", "state": "", "gplus_id": "105190723223310235866", "group_type": "GDG"}, {"status": "active", "site": "devsite", "street": "", "geo": {"lat": 31.9565783, "lng": 35.945695100000002}, "city": "Amman", "name": "GDG Al-Zaytoonah University", "country": "Jordan", "chapter_id": "", "state": "", "gplus_id": "105256268904500410373", "group_type": "GDG"}, {"status": "active", "site": "devsite", "street": "", "geo": {"lat": -2.5184158999999999, "lng": 28.8584125}, "city": "Bukavu", "name": "GDG Bukavu", "country": "Congo, DRC", "chapter_id": "", "state": "South Kivu", "gplus_id": "105262014217631748015", "group_type": "GDG"}, {"status": "active", "site": "devsite", "street": "", "geo": {"lat": -15.408193000000001, "lng": 28.287167}, "city": "Lusaka", "name": "GDG Lusaka", "country": "Zambia", "chapter_id": "904013", "state": "", "gplus_id": "105295357051547814817", "group_type": "GDG"}, {"status": "active", "site": "devsite", "street": "", "geo": {"lat": 4.5980555999999986, "lng": -74.075833299999999}, "city": "Bogot\u00e1", "name": "GDG Bogot\u00e1", "country": "Colombia", "chapter_id": "1006", "state": "", "gplus_id": "105317872802986145679", "group_type": "GDG"}, {"status": "active", "site": "devsite", "street": "", "geo": {"lat": 56.949648699999997, "lng": 24.105186400000001}, "city": "Riga", "name": "GDG Riga", "country": "Latvia", "chapter_id": "", "state": "", "gplus_id": "105327287996815830446", "group_type": "GDG"}, {"status": "active", "site": "devsite", "street": "", "geo": {"lat": 7.1907079999999999, "lng": 125.455341}, "city": "Davao City", "name": "GDG Davao", "country": "Philippines", "chapter_id": "142001", "state": "", "gplus_id": "105456972621599447153", "group_type": "GDG"}, {"status": "active", "site": "devsite", "street": "", "geo": {"lat": 36.721260999999998, "lng": -4.4212654999999996}, "city": "Malaga", "name": "GDG M\u00e1laga", "country": "Spain", "chapter_id": "823009", "state": "Andaluc\u00eda", "gplus_id": "105524274802890643642", "group_type": "GDG"}, {"status": "active", "site": "devsite", "street": "", "geo": {"lat": 16.800000000000001, "lng": 96.150000000000006}, "city": "Yangon", "name": "GDG Yangon", "country": "Myanmar", "chapter_id": "", "state": "", "gplus_id": "105531398471796409992", "group_type": "GDG"}, {"status": "active", "site": "devsite", "street": "Mercado Venustiano Carranza", "geo": {"lat": 18.818604700000002, "lng": -97.163052499999992}, "city": "Puebla", "name": "GDG Puebla", "country": "Mexico", "chapter_id": "", "state": "Puebla", "gplus_id": "105559948991747567837", "group_type": "GDG"}, {"status": "active", "site": "devsite", "street": "", "geo": {"lat": 39.961175500000003, "lng": -82.998794199999992}, "city": "Columbus", "name": "GDG Columbus", "country": "United States", "chapter_id": "1131001", "state": "OH", "gplus_id": "105576655990772027346", "group_type": "GDG"}, {"status": "incubating", "site": "devsite", "street": "", "geo": {"lat": -9.6498486999999997, "lng": -35.708949199999999}, "city": "Macei\u00f3", "name": "GDG Macei\u00f3", "country": "Brazil", "chapter_id": "", "state": "AL", "gplus_id": "105591078626334574818", "group_type": "GDG"}, {"status": "active", "site": "devsite", "street": "", "geo": {"lat": 29.938126, "lng": 30.913979999999999}, "city": "6th of October City", "name": "GDG 6th October", "country": "Egypt", "chapter_id": "", "state": "", "gplus_id": "105609152381762460369", "group_type": "GDG"}, {"status": "active", "site": "devsite", "street": "", "geo": {"lat": 23.709921000000001, "lng": 90.407142999999991}, "city": "Dhaka", "name": "GDG Dhaka", "country": "Bangladesh", "chapter_id": "1080001", "state": "", "gplus_id": "105616021694889364243", "group_type": "GDG"}, {"status": "active", "site": "devsite", "street": "", "geo": {"lat": 42.023350000000001, "lng": -93.625621999999993}, "city": "Ames", "name": "GDG Ames", "country": "United States", "chapter_id": "", "state": "Iowa", "gplus_id": "105638061282002057162", "group_type": "GDG"}, {"status": "active", "site": "devsite", "street": "", "geo": {"lat": 4.8902777999999998, "lng": 114.9422222}, "city": "Bandar Seri Begawan", "name": "GDG Brunei", "country": "Brunei Darussalam", "chapter_id": "289001", "state": "", "gplus_id": "105666592364623935060", "group_type": "GDG"}, {"status": "active", "site": "devsite", "street": "", "geo": {"lat": -38.711677600000009, "lng": -62.268077800000007}, "city": "Bahia Blanca,Buenos Aires", "name": "GDG Bahia", "country": "Argentina", "chapter_id": "1112001", "state": "", "gplus_id": "105683961210744335830", "group_type": "GDG"}, {"status": "active", "site": "devsite", "street": "", "geo": {"lat": 32.545441799999999, "lng": 35.857153199999999}, "city": "Irbid", "name": "GDG Yarmouk University", "country": "Jordan", "chapter_id": "1107003", "state": "", "gplus_id": "105734230312112352829", "group_type": "GDG"}, {"status": "active", "site": "devsite", "street": "", "geo": {"lat": 14.5995124, "lng": 120.98421949999999}, "city": "Manila", "name": "GDG Philippines", "country": "Philippines", "chapter_id": "1019", "state": "", "gplus_id": "105750470224587854845", "group_type": "GDG"}, {"status": "active", "site": "devsite", "street": "", "geo": {"lat": 44.983333999999999, "lng": -93.266669999999991}, "city": "Minneapolis", "name": "GDG Twin Cities", "country": "United States", "chapter_id": "40", "state": "MN", "gplus_id": "105771089293763738926", "group_type": "GDG"}, {"status": "active", "site": "devsite", "street": "", "geo": {"lat": 48.732084, "lng": -3.4591440000000002}, "city": "Lannion", "name": "GDG Code d'Armor", "country": "France", "chapter_id": "", "state": "", "gplus_id": "105840950870167242716", "group_type": "GDG"}, {"status": "active", "site": "devsite", "street": "", "geo": {"lat": 52.2296756, "lng": 21.012228700000001}, "city": "Warsaw", "name": "GDG Warsaw", "country": "Poland", "chapter_id": "931004", "state": "", "gplus_id": "105909141177271768718", "group_type": "GDG"}, {"status": "active", "site": "devsite", "street": "", "geo": {"lat": 19.932155900000001, "lng": -96.850884100000002}, "city": "Misantla", "name": "GDG Misantla", "country": "Mexico", "chapter_id": "", "state": "Veracruz", "gplus_id": "105913671375627414441", "group_type": "GDG"}, {"status": "active", "site": "devsite", "street": "", "geo": {"lat": 34.686666700000004, "lng": -1.9113888999999999}, "city": "Oujda", "name": "GDG Oujda", "country": "Morocco", "chapter_id": "", "state": "", "gplus_id": "105916734940500587856", "group_type": "GDG"}, {"status": "incubating", "site": "devsite", "street": "", "geo": {"lat": 39.084158000000002, "lng": 117.20098299999999}, "city": "Tianjin", "name": "GDG Tianjin", "country": "China", "chapter_id": "", "state": "", "gplus_id": "105969102740437964990", "group_type": "GBG"}, {"status": "active", "site": "devsite", "street": "", "geo": {"lat": 3.8666666999999988, "lng": 11.5166667}, "city": "Yaounde", "name": "GDG Yaound\u00e9", "country": "Cameroon", "chapter_id": "1031002", "state": "", "gplus_id": "105969240777402167848", "group_type": "GDG"}, {"status": "active", "site": "devsite", "street": "", "geo": {"lat": 10.8230989, "lng": 106.6296638}, "city": "Ho Chi Minh", "name": "GDG Vietnam", "country": "Vietnam", "chapter_id": "", "state": "", "gplus_id": "106004400398954649440", "group_type": "GDG"}, {"status": "active", "site": "devsite", "street": "", "geo": {"lat": 40.440624799999988, "lng": -79.995886400000003}, "city": "Pittsburgh", "name": "GDG Pittsburgh", "country": "United States", "chapter_id": "", "state": "Pennsylvania", "gplus_id": "106016366999882079356", "group_type": "GDG"}, {"status": "active", "site": "devsite", "street": "", "geo": {"lat": 59.328930000000007, "lng": 18.064910000000001}, "city": "Stockholm", "name": "GDG Stockholm", "country": "Sweden", "chapter_id": "28", "state": "", "gplus_id": "106025196160710546713", "group_type": "GDG"}, {"status": "active", "site": "devsite", "street": "", "geo": {"lat": 9.9312328000000001, "lng": 76.26730409999999}, "city": "Cochin,kerala", "name": "GDG Cochin", "country": "India", "chapter_id": "", "state": "Kerala", "gplus_id": "106046004645175854179", "group_type": "GDG"}, {"status": "active", "site": "devsite", "street": "", "geo": {"lat": 42.878213199999998, "lng": -8.5448445}, "city": "Santiago de Compostela", "name": "GDG Santiago", "country": "Spain", "chapter_id": "", "state": "Galicia", "gplus_id": "106226686422101121625", "group_type": "GDG"}, {"status": "active", "site": "devsite", "street": "", "geo": {"lat": 49.444432999999997, "lng": 32.059767000000001}, "city": "Cherkassy", "name": "GDG Cherkassy", "country": "Ukraine", "chapter_id": "", "state": "", "gplus_id": "106245677365553946559", "group_type": "GDG"}, {"status": "active", "site": "devsite", "street": "", "geo": {"lat": 41.117143200000001, "lng": 16.871871500000001}, "city": "Bari", "name": "GDG Bari", "country": "Italy", "chapter_id": "", "state": "", "gplus_id": "106251105155216710234", "group_type": "GDG"}, {"status": "active", "site": "devsite", "street": "", "geo": {"lat": 37.866666700000003, "lng": 32.483333299999998}, "city": "Konya", "name": "GDG Konya", "country": "Turkey", "chapter_id": "", "state": "", "gplus_id": "106259793223840835252", "group_type": "GDG"}, {"status": "active", "site": "devsite", "street": "", "geo": {"lat": 23.039567699999999, "lng": 72.566004499999991}, "city": "Ahmedabad,Gujarat", "name": "GDG Ahmedabad", "country": "India", "chapter_id": "", "state": "Gujarat", "gplus_id": "106261089114347152720", "group_type": "GDG"}, {"status": "active", "site": "devsite", "street": "", "geo": {"lat": 42.231356400000003, "lng": -8.7124471000000003}, "city": "Vigo", "name": "GDG Vigo", "country": "Spain", "chapter_id": "", "state": "", "gplus_id": "106284181570326060854", "group_type": "GDG"}, {"status": "incubating", "site": "devsite", "street": "calle Poeta Paredes 25", "geo": {"lat": 37.915548399999999, "lng": -4.8093785999999996}, "city": "C\u00f3rdoba", "name": "GDG C\u00f3rdoba", "country": "Spain", "chapter_id": "", "state": "", "gplus_id": "106302567584201009963", "group_type": "GDG"}, {"status": "active", "site": "devsite", "street": "", "geo": {"lat": 34.690083000000001, "lng": 135.1955112}, "city": "Kobe", "name": "GDG Kobe", "country": "Japan", "chapter_id": "1166001", "state": "", "gplus_id": "106414828378079312919", "group_type": "GDG"}, {"status": "incubating", "site": "devsite", "street": "", "geo": {"lat": 38.984829499999996, "lng": -3.927377799999999}, "city": "Ciudad Real", "name": "GDG Ciudad Real", "country": "Spain", "chapter_id": "", "state": "Castilla La Mancha", "gplus_id": "106429748600150466310", "group_type": "GDG"}, {"status": "incubating", "site": "devsite", "street": "", "geo": {"lat": 42.995639699999998, "lng": -71.454789099999999}, "city": "Manchester", "name": "GDG Manchester", "country": "United States", "chapter_id": "", "state": "NH", "gplus_id": "106505407948352337138", "group_type": "GDG"}, {"status": "active", "site": "devsite", "street": "1 Jan Smuts Avenue", "geo": {"lat": -26.180949999999999, "lng": 28.02966}, "city": "Johannesburg", "name": "GDG Wits", "country": "South Africa", "chapter_id": "", "state": "", "gplus_id": "106505752730493822675", "group_type": "GDG"}, {"status": "active", "site": "devsite", "street": "", "geo": {"lat": -32.4845349, "lng": -58.232141599999999}, "city": "Concepci\u00f3n del Uruguay", "name": "GDG Entre Rios", "country": "Argentina", "chapter_id": "", "state": "Entre Rios", "gplus_id": "106664753257675974749", "group_type": "GDG"}, {"status": "active", "site": "devsite", "street": "", "geo": {"lat": 41.709980999999999, "lng": 44.792997999999997}, "city": "Tbilisi", "name": "GDG Tbilisi", "country": "Georgia", "chapter_id": "1149004", "state": "", "gplus_id": "106672659252619762166", "group_type": "GDG"}, {"status": "incubating", "site": "devsite", "street": "Sector 125, Noida", "geo": {"lat": 28.543792499999999, "lng": 77.331006700000003}, "city": "Noida", "name": "GDG Amity University", "country": "India", "chapter_id": "", "state": "Uttar Pradesh", "gplus_id": "106673010543655209346", "group_type": "GDG"}, {"status": "active", "site": "devsite", "street": "", "geo": {"lat": 32.780139900000002, "lng": -96.800451099999989}, "city": "Dallas", "name": "GDG Dallas", "country": "United States", "chapter_id": "36", "state": "TX", "gplus_id": "106687878036827889323", "group_type": "GDG"}, {"status": "active", "site": "devsite", "street": "", "geo": {"lat": 13.7522222, "lng": 100.4938889}, "city": "Bangkok", "name": "GDG Thailand", "country": "Thailand", "chapter_id": "1021", "state": "", "gplus_id": "106701299960858507430", "group_type": "GDG"}, {"status": "active", "site": "devsite", "street": "120 Bd Serigne Saliou Mback\u00e9, Universit\u00e9 de Thi\u00e8s", "geo": {"lat": 14.8047, "lng": -16.924339}, "city": "Thies", "name": "GDG Thies", "country": "Senegal", "chapter_id": "794002", "state": "", "gplus_id": "106722613993374701376", "group_type": "GDG"}, {"status": "active", "site": "devsite", "street": "", "geo": {"lat": 4.047486000000001, "lng": 9.7063740000000003}, "city": "Douala", "name": "GDG Douala", "country": "Cameroon", "chapter_id": "", "state": "", "gplus_id": "106759185500664250739", "group_type": "GDG"}, {"status": "active", "site": "devsite", "street": "", "geo": {"lat": 43.771033199999998, "lng": 11.248000599999999}, "city": "Firenze", "name": "GDG Firenze", "country": "Italy", "chapter_id": "1015", "state": "", "gplus_id": "106830297068962619150", "group_type": "GDG"}, {"status": "active", "site": "devsite", "street": "", "geo": {"lat": -9.4815530000000017, "lng": 147.19024200000001}, "city": "Port Moresby", "name": "GDG Port Moresby", "country": "Papua New Guinea", "chapter_id": "", "state": "", "gplus_id": "106840051712296332154", "group_type": "GDG"}, {"status": "active", "site": "devsite", "street": "", "geo": {"lat": 22.7708555, "lng": -102.58324260000001}, "city": "Zacatecas", "name": "GDG Zacatecas", "country": "Mexico", "chapter_id": "477002", "state": "", "gplus_id": "106864877978103968037", "group_type": "GDG"}, {"status": "active", "site": "devsite", "street": "", "geo": {"lat": 32.715329199999999, "lng": -117.1572551}, "city": "San Diego", "name": "GDG San Diego", "country": "United States", "chapter_id": "", "state": "CA", "gplus_id": "106877905053562887075", "group_type": "GDG"}, {"status": "active", "site": "devsite", "street": "", "geo": {"lat": 30.5, "lng": 47.816666699999999}, "city": "Basra", "name": "GDG Basra", "country": "Iraq", "chapter_id": "", "state": "", "gplus_id": "106887732823425223315", "group_type": "GDG"}, {"status": "incubating", "site": "devsite", "street": "", "geo": {"lat": -3.1190275000000001, "lng": -60.0217314}, "city": "Manaus", "name": "GDG Manaus", "country": "Brazil", "chapter_id": "", "state": "AM", "gplus_id": "106902919091030560197", "group_type": "GDG"}, {"status": "active", "site": "devsite", "street": "", "geo": {"lat": 19.705950399999999, "lng": -101.19498249999999}, "city": "Morelia", "name": "GDG Morelia", "country": "Mexico", "chapter_id": "", "state": "Michoacan", "gplus_id": "106951248012161370125", "group_type": "GDG"}, {"status": "active", "site": "devsite", "street": "", "geo": {"lat": 16.506174300000001, "lng": 80.648015299999997}, "city": "Vijayawada", "name": "GDG Vijayawada", "country": "India", "chapter_id": "", "state": "Andhra Pradesh", "gplus_id": "106957422280838439269", "group_type": "GDG"}, {"status": "active", "site": "devsite", "street": "", "geo": {"lat": 5.3499999999999996, "lng": 10.4}, "city": "Bandjoun", "name": "GDG Bandjoun", "country": "Cameroon", "chapter_id": "", "state": " West Province", "gplus_id": "106974122958849086430", "group_type": "GDG"}, {"status": "active", "site": "devsite", "street": "", "geo": {"lat": 33.6839473, "lng": -117.7946942}, "city": "Irvine", "name": "GDG Orange County", "country": "United States", "chapter_id": "", "state": "CA", "gplus_id": "106989747428186351835", "group_type": "GDG"}, {"status": "active", "site": "devsite", "street": "", "geo": {"lat": -6.9666667000000002, "lng": 110.41666669999999}, "city": "Semarang", "name": "GDG Semarang ", "country": "Indonesia", "chapter_id": "", "state": "", "gplus_id": "107095076091983603214", "group_type": "GDG"}, {"status": "active", "site": "devsite", "street": "", "geo": {"lat": 32.221742900000002, "lng": -110.926479}, "city": "Tucson", "name": "GDG Tucson", "country": "United States", "chapter_id": "", "state": "Arizona", "gplus_id": "107118157366278614352", "group_type": "GDG"}, {"status": "incubating", "site": "devsite", "street": "3826 Oak Ridge Dr SE", "geo": {"lat": 41.969310999999998, "lng": -91.611971999999994}, "city": "Cedar Rapids", "name": "GDG Cedar Rapids", "country": "United States", "chapter_id": "", "state": "Iowa", "gplus_id": "107120935444388089694", "group_type": "GDG"}, {"status": "active", "site": "devsite", "street": "", "geo": {"lat": 12.971598699999999, "lng": 77.594562699999997}, "city": "Bangalore,karnataka", "name": "GDG BlrDroid", "country": "India", "chapter_id": "", "state": "Karnataka", "gplus_id": "107164202864939006825", "group_type": "GDG"}, {"status": "active", "site": "devsite", "street": "", "geo": {"lat": -7.1153199999999996, "lng": -34.861051199999999}, "city": "Jo\u00e3o Pessoa", "name": "GDG Jo\u00e3o Pessoa", "country": "Brazil", "chapter_id": "", "state": "PB", "gplus_id": "107166165426891613168", "group_type": "GDG"}, {"status": "active", "site": "devsite", "street": "", "geo": {"lat": -8.8383333000000004, "lng": 13.234444399999999}, "city": "Luanda", "name": "GDG Luanda", "country": "Angola", "chapter_id": "", "state": "", "gplus_id": "107214973668029821111", "group_type": "GDG"}, {"status": "active", "site": "devsite", "street": "", "geo": {"lat": 36.061255000000003, "lng": 103.834377}, "city": "Lanzhou", "name": "GDG Lanzhou", "country": "China", "chapter_id": "1402001", "state": "", "gplus_id": "107219447444236191734", "group_type": "GDG"}, {"status": "incubating", "site": "devsite", "street": "", "geo": {"lat": 34.033333300000002, "lng": -6.7999999999999998}, "city": "Sale", "name": "GDG Sale", "country": "Morocco", "chapter_id": "", "state": "", "gplus_id": "107274811531531393615", "group_type": "GDG"}, {"status": "active", "site": "devsite", "street": "", "geo": {"lat": 37.386051700000003, "lng": -122.0838511}, "city": "Mountain View", "name": "GDG Silicon Valley", "country": "United States", "chapter_id": "1038", "state": "CA", "gplus_id": "107299704799906781285", "group_type": "GDG"}, {"status": "active", "site": "devsite", "street": "", "geo": {"lat": -33.867486900000003, "lng": 151.20699020000001}, "city": "Sydney", "name": "GDG Sydney", "country": "Australia", "chapter_id": "3020", "state": "", "gplus_id": "107322171137758703849", "group_type": "GDG"}, {"status": "active", "site": "devsite", "street": "", "geo": {"lat": 29.760192700000001, "lng": -95.369389599999991}, "city": "Houston", "name": "GDG Houston", "country": "United States", "chapter_id": "", "state": "Texas", "gplus_id": "107327984577255595926", "group_type": "GDG"}, {"status": "active", "site": "devsite", "street": "65-66 R\u00e9sidence Machala Nord Libert\u00e9 6 extension", "geo": {"lat": 14.6927778, "lng": -17.446666700000002}, "city": "Dakar", "name": "GDG Dakar", "country": "Senegal", "chapter_id": "750002", "state": "", "gplus_id": "107348863310258936561", "group_type": "GDG"}, {"status": "active", "site": "devsite", "street": "", "geo": {"lat": 33.448377100000002, "lng": -112.0740373}, "city": "Phoenix", "name": "GDG Phoenix", "country": "United States", "chapter_id": "361001", "state": "AZ", "gplus_id": "107371179007921028529", "group_type": "GDG"}, {"status": "active", "site": "devsite", "street": "", "geo": {"lat": 51.227741100000003, "lng": 6.7734556000000001}, "city": "D\u00fcsseldorf", "name": "GDG D\u00fcsseldorf", "country": "Germany", "chapter_id": "14", "state": "", "gplus_id": "107373371386267684213", "group_type": "GDG"}, {"status": "active", "site": "devsite", "street": "", "geo": {"lat": -26.690940999999999, "lng": 27.82649}, "city": "Vanderbiljpark", "name": "GDG VUT", "country": "South Africa", "chapter_id": "", "state": "", "gplus_id": "107385433121528193142", "group_type": "GDG"}, {"status": "incubating", "site": "devsite", "street": "", "geo": {"lat": -8.0475458, "lng": -34.8769621}, "city": "Recife", "name": "GDG Recife", "country": "Brazil", "chapter_id": "", "state": "PE", "gplus_id": "107427206571717582029", "group_type": "GDG"}, {"status": "active", "site": "devsite", "street": "", "geo": {"lat": 21.543489000000001, "lng": 39.172989000000001}, "city": "Jeddah", "name": "GDG Jeddah", "country": "Saudi Arabia", "chapter_id": "861003", "state": "", "gplus_id": "107457519240973887317", "group_type": "GDG"}, {"status": "active", "site": "devsite", "street": "", "geo": {"lat": 6.8166666999999999, "lng": -5.2833332999999998}, "city": "Yamoussoukro", "name": "GDG INPHB", "country": "Cote d'Ivoire", "chapter_id": "", "state": "", "gplus_id": "107477192157293930542", "group_type": "GDG"}, {"status": "active", "site": "devsite", "street": "", "geo": {"lat": 49.1950602, "lng": 16.6068371}, "city": "Brno", "name": "GDG Brno", "country": "Czech Republic", "chapter_id": "", "state": "", "gplus_id": "107527312296247581699", "group_type": "GDG"}, {"status": "active", "site": "devsite", "street": "", "geo": {"lat": 23.709921000000001, "lng": 90.407142999999991}, "city": "Dhaka", "name": "GDG Sonargaon", "country": "Bangladesh", "chapter_id": "", "state": "", "gplus_id": "107531599295906039081", "group_type": "GDG"}, {"status": "active", "site": "devsite", "street": "", "geo": {"lat": 50.064650099999987, "lng": 19.9449799}, "city": "Krak\u00f3w", "name": "GDG Krak\u00f3w", "country": "Poland", "chapter_id": "906017", "state": "", "gplus_id": "107562802227561437057", "group_type": "GDG"}, {"status": "active", "site": "devsite", "street": "", "geo": {"lat": 42.462719499999999, "lng": -2.4449852000000001}, "city": "Logro\u00f1o", "name": "GDG La Rioja", "country": "Spain", "chapter_id": "", "state": "La Rioja", "gplus_id": "107567067338388204476", "group_type": "GDG"}, {"status": "active", "site": "devsite", "street": "", "geo": {"lat": -23.649999999999999, "lng": -70.399999999999991}, "city": "Antofagasta", "name": "GDG Antofagasta", "country": "Chile", "chapter_id": "", "state": "", "gplus_id": "107585565628124978847", "group_type": "GDG"}, {"status": "active", "site": "devsite", "street": "", "geo": {"lat": 37.1773363, "lng": -3.5985570999999998}, "city": "Granada", "name": "GDG Granada", "country": "Spain", "chapter_id": "475001", "state": "", "gplus_id": "107621838547829286968", "group_type": "GDG"}, {"status": "active", "site": "devsite", "street": "", "geo": {"lat": 36.480499000000002, "lng": 2.8339050000000001}, "city": "Blida", "name": "GDG Blida", "country": "Algeria", "chapter_id": "", "state": "", "gplus_id": "107630357199337939894", "group_type": "GDG"}, {"status": "active", "site": "devsite", "street": "Dakshina Kannada, Karnataka", "geo": {"lat": 12.9141417, "lng": 74.855956800000001}, "city": "Mangalore", "name": "GDG Mangalore", "country": "India", "chapter_id": "", "state": "Karnataka", "gplus_id": "107642459388713562928", "group_type": "GDG"}, {"status": "active", "site": "devsite", "street": "", "geo": {"lat": 37.983444899999988, "lng": -1.1298897000000001}, "city": "Murcia", "name": "GDG Murcia", "country": "Spain", "chapter_id": "690001", "state": "", "gplus_id": "107657001882433902492", "group_type": "GDG"}, {"status": "active", "site": "devsite", "street": "", "geo": {"lat": 53.079296199999987, "lng": 8.8016936999999995}, "city": "Bremen", "name": "GDG Bremen", "country": "Germany", "chapter_id": "1108003", "state": "", "gplus_id": "107701928579044041923", "group_type": "GDG"}, {"status": "active", "site": "devsite", "street": "", "geo": {"lat": 30.274089, "lng": 120.155069}, "city": "Hangzhou", "name": "GDG Hangzhou", "country": "China", "chapter_id": "1040", "state": "", "gplus_id": "107736551552874801480", "group_type": "GDG"}, {"status": "active", "site": "devsite", "street": "", "geo": {"lat": 7.3238719999999997, "lng": 13.583629999999999}, "city": "Ngaoundere", "name": "GDG Nd\u00e9r\u00e9", "country": "Cameroon", "chapter_id": "", "state": "", "gplus_id": "107754356908783968376", "group_type": "GDG"}, {"status": "active", "site": "devsite", "street": "", "geo": {"lat": 42.870021999999999, "lng": 74.587882999999991}, "city": "Bishkek", "name": "GDG Bishkek", "country": "Kyrgyzstan", "chapter_id": "1034002", "state": "", "gplus_id": "107766380565023451691", "group_type": "GDG"}, {"status": "incubating", "site": "devsite", "street": "", "geo": {"lat": 39.737566999999999, "lng": -104.98471790000001}, "city": "Denver", "name": "GDG Denver", "country": "United States", "chapter_id": "", "state": "CO", "gplus_id": "107789954104899034011", "group_type": "GDG"}, {"status": "active", "site": "devsite", "street": "", "geo": {"lat": 16.829804800000002, "lng": 100.26149150000001}, "city": "Phitsanulok", "name": "GDG Phitsanulok", "country": "Thailand", "chapter_id": "", "state": "", "gplus_id": "107850642716394364694", "group_type": "GDG"}, {"status": "incubating", "site": "devsite", "street": "", "geo": {"lat": 53.551084600000003, "lng": 9.9936817999999992}, "city": "Hamburg", "name": "GDG Hamburg Android", "country": "Germany", "chapter_id": "", "state": "Hamburg", "gplus_id": "107859748046093089218", "group_type": "GDG"}, {"status": "active", "site": "devsite", "street": "Paseo de Canalejas 169", "geo": {"lat": 40.958945499999999, "lng": -5.6602252999999996}, "city": "Salamanca", "name": "GDG Salamanca", "country": "Spain", "chapter_id": "", "state": "Castilla Leon", "gplus_id": "107931642576280918674", "group_type": "GDG"}, {"status": "active", "site": "devsite", "street": "Lugar Parc Gardeny 23", "geo": {"lat": 41.617589899999999, "lng": 0.62001459999999997}, "city": "Lleida", "name": "GDG Lleida", "country": "Spain", "chapter_id": "", "state": "", "gplus_id": "107962088655881499591", "group_type": "GDG"}, {"status": "incubating", "site": "devsite", "street": "", "geo": {"lat": -31.398929599999999, "lng": -64.182128899999995}, "city": "Cordoba", "name": "GDG Open C\u00f3rdoba", "country": "Argentina", "chapter_id": "1105004", "state": "", "gplus_id": "107966529035383279206", "group_type": "GDG"}, {"status": "active", "site": "devsite", "street": "", "geo": {"lat": 6.4526667, "lng": 7.5103333000000001}, "city": "Enugu", "name": "GDG Enugu", "country": "Nigeria", "chapter_id": "", "state": "", "gplus_id": "107982492044424122264", "group_type": "GDG"}, {"status": "active", "site": "devsite", "street": "Bishop Magua Centre, Ngong Road", "geo": {"lat": -1.3080754999999999, "lng": 36.733453800000007}, "city": "Nairobi", "name": "GDG Nairobi", "country": "Kenya", "chapter_id": "57002", "state": "", "gplus_id": "108023673559083336909", "group_type": "GDG"}, {"status": "active", "site": "devsite", "street": "", "geo": {"lat": 50.629249999999999, "lng": 3.0572560000000002}, "city": "Lille", "name": "GDG Lille", "country": "France", "chapter_id": "", "state": "", "gplus_id": "108064444359793252329", "group_type": "GDG"}, {"status": "active", "site": "devsite", "street": "", "geo": {"lat": 42.886446799999987, "lng": -78.878368899999998}, "city": "Buffalo", "name": "GDG Buffalo", "country": "United States", "chapter_id": "", "state": "New York", "gplus_id": "108106255897548082799", "group_type": "GDG"}, {"status": "incubating", "site": "devsite", "street": "", "geo": {"lat": 0.4244444, "lng": 33.204166700000002}, "city": "Jinja", "name": "GDG Jinja", "country": "Uganda", "chapter_id": "", "state": "", "gplus_id": "108180703804185537320", "group_type": "GDG"}, {"status": "incubating", "site": "devsite", "street": "", "geo": {"lat": -23.740066899999999, "lng": -46.570329899999997}, "city": "ABC Paulista", "name": "GDG ABC", "country": "Brazil", "chapter_id": "", "state": "SP", "gplus_id": "108193462895935017410", "group_type": "GDG"}, {"status": "active", "site": "devsite", "street": "", "geo": {"lat": 37.566535000000002, "lng": 126.9779692}, "city": "Seoul", "name": "GDG Korea Women", "country": "South Korea", "chapter_id": "", "state": "", "gplus_id": "108196114606467432743", "group_type": "GDG"}, {"status": "active", "site": "devsite", "street": "", "geo": {"lat": 0.35333330000000002, "lng": 32.755277800000002}, "city": "Mukono", "name": "GDG UCU", "country": "Uganda", "chapter_id": "", "state": "", "gplus_id": "108217555392256442794", "group_type": "GDG"}, {"status": "active", "site": "devsite", "street": "", "geo": {"lat": 46.071066799999997, "lng": 13.234579399999999}, "city": "Udine", "name": "GDG Udine", "country": "Italy", "chapter_id": "", "state": "", "gplus_id": "108234097192616821410", "group_type": "GDG"}, {"status": "incubating", "site": "devsite", "street": "2225 N Gemini Dr", "geo": {"lat": 35.214357399999997, "lng": -111.633039}, "city": "Flagstaff", "name": "GDG Flagstaff", "country": "United States", "chapter_id": "", "state": "AZ", "gplus_id": "108278785348126003369", "group_type": "GDG"}, {"status": "active", "site": "devsite", "street": "", "geo": {"lat": 32.162413000000001, "lng": 34.844675000000002}, "city": "Herzeliya", "name": "GDG Herzeliya", "country": "Israel", "chapter_id": "1149001", "state": "", "gplus_id": "108330465965030046982", "group_type": "GDG"}, {"status": "incubating", "site": "devsite", "street": "", "geo": {"lat": -20.318888999999999, "lng": -40.337778}, "city": "Grande Vit\u00f3ria", "name": "GDG Grande Vit\u00f3ria", "country": "Brazil", "chapter_id": "", "state": "ES", "gplus_id": "108335687499866268697", "group_type": "GDG"}, {"status": "active", "site": "devsite", "street": "", "geo": {"lat": 48.721005299999987, "lng": 21.257799899999998}, "city": "Kosice", "name": "GDG Kosice", "country": "Slovakia", "chapter_id": "", "state": "", "gplus_id": "108346197166929309455", "group_type": "GDG"}, {"status": "active", "site": "devsite", "street": "", "geo": {"lat": -12.046374, "lng": -77.042793399999994}, "city": "Lima", "name": "GDG Women Lima", "country": "Peru", "chapter_id": "", "state": "", "gplus_id": "108383858320169753022", "group_type": "GDG"}, {"status": "active", "site": "devsite", "street": "", "geo": {"lat": 38.5815719, "lng": -121.49439959999999}, "city": "Sacramento", "name": "GDG Sacramento", "country": "United States", "chapter_id": "34", "state": "CA", "gplus_id": "108577940252424736338", "group_type": "GDG"}, {"status": "active", "site": "devsite", "street": "", "geo": {"lat": 53.778421999999999, "lng": 20.480119299999998}, "city": "Olsztyn", "name": "GDG Olsztyn", "country": "Poland", "chapter_id": "", "state": "", "gplus_id": "108580281690888038595", "group_type": "GDG"}, {"status": "active", "site": "devsite", "street": "Cocody", "geo": {"lat": 5.3499999999999996, "lng": -3.9833333}, "city": "Abidjan", "name": "GDG Miage GI Cocody", "country": "Cote d'Ivoire", "chapter_id": "", "state": "Lagunes", "gplus_id": "108584747374575633076", "group_type": "GDG"}, {"status": "incubating", "site": "devsite", "street": "", "geo": {"lat": -32.983333299999998, "lng": 27.8666667}, "city": "East London", "name": "GDG East London", "country": "South Africa", "chapter_id": "", "state": "", "gplus_id": "108607510266576090061", "group_type": "GDG"}, {"status": "active", "site": "devsite", "street": "", "geo": {"lat": 48.113475000000001, "lng": -1.675708}, "city": "Rennes", "name": "GDG Rennes", "country": "France", "chapter_id": "", "state": "", "gplus_id": "108631645387454183040", "group_type": "GDG"}, {"status": "active", "site": "devsite", "street": "", "geo": {"lat": 20.979721000000001, "lng": -89.615788999999992}, "city": "Merida", "name": "GDG Merida", "country": "Mexico", "chapter_id": "", "state": "", "gplus_id": "108646322376645258661", "group_type": "GDG"}, {"status": "active", "site": "devsite", "street": "", "geo": {"lat": 5.1050559999999994, "lng": -1.247234}, "city": "Cape Coast", "name": "GDG University of Cape Coast", "country": "Ghana", "chapter_id": "580001", "state": "", "gplus_id": "108678197502943958813", "group_type": "GDG"}, {"status": "active", "site": "devsite", "street": "", "geo": {"lat": 33.348942000000001, "lng": 10.49479}, "city": "Medenine", "name": "GDG Medenine", "country": "Tunisia", "chapter_id": "", "state": "", "gplus_id": "108682499289711006315", "group_type": "GDG"}, {"status": "incubating", "site": "devsite", "street": "", "geo": {"lat": 43.856258599999997, "lng": 18.4130763}, "city": "Sarajevo", "name": "GDG Sarajevo", "country": "Bosnia and Herzegovina", "chapter_id": "", "state": "", "gplus_id": "108745596386686558059", "group_type": "GDG"}, {"status": "active", "site": "devsite", "street": "", "geo": {"lat": 51.5073346, "lng": -0.12768309999999999}, "city": "London", "name": "GDG London", "country": "United Kingdom", "chapter_id": "31", "state": "", "gplus_id": "108855452729844077920", "group_type": "GDG"}, {"status": "active", "site": "devsite", "street": "", "geo": {"lat": 6.2359249999999999, "lng": -75.575136999999998}, "city": "Medellin", "name": "GDG Medellin", "country": "Colombia", "chapter_id": "", "state": "", "gplus_id": "108857155057392494967", "group_type": "GDG"}, {"status": "incubating", "site": "devsite", "street": "", "geo": {"lat": 41.663938299999998, "lng": -83.555212000000012}, "city": "Toledo", "name": "GDG Toledo", "country": "United States", "chapter_id": "", "state": "OH", "gplus_id": "108957585266811742746", "group_type": "GDG"}, {"status": "active", "site": "devsite", "street": "", "geo": {"lat": 36.115607099999998, "lng": -97.058368099999996}, "city": "Stillwater", "name": "GDG OSU Stillwater", "country": "United States", "chapter_id": "", "state": "Oklahoma", "gplus_id": "109062818916703314473", "group_type": "GDG"}, {"status": "active", "site": "devsite", "street": "", "geo": {"lat": 52.370215700000003, "lng": 4.8951679000000006}, "city": "Amsterdam", "name": "GDG Netherlands", "country": "Netherlands", "chapter_id": "44", "state": "", "gplus_id": "109146411236228596892", "group_type": "GDG"}, {"status": "active", "site": "devsite", "street": "", "geo": {"lat": 23.2248196, "lng": 72.646376899999993}, "city": "Gandhinagar", "name": "GDG Gandhinagar", "country": "India", "chapter_id": "1054002", "state": "", "gplus_id": "109189940762716110863", "group_type": "GDG"}, {"status": "incubating", "site": "devsite", "street": "", "geo": {"lat": -27.594988399999998, "lng": -48.548174299999999}, "city": "Florian\u00f3polis", "name": "GDG Floripa", "country": "Brazil", "chapter_id": "", "state": "SC", "gplus_id": "109245804055148797587", "group_type": "GDG"}, {"status": "active", "site": "devsite", "street": "", "geo": {"lat": 5.2000000000000002, "lng": -3.7333333}, "city": "Bassam", "name": "GDG Bassam", "country": "Cote d'Ivoire", "chapter_id": "", "state": "Grand-Bassam", "gplus_id": "109314849815527267619", "group_type": "GDG"}, {"status": "active", "site": "devsite", "street": "", "geo": {"lat": 35.181446399999999, "lng": 136.906398}, "city": "Nagoya", "name": "GDG Nagoya", "country": "Japan", "chapter_id": "1068002", "state": "", "gplus_id": "109355660646855759577", "group_type": "GDG"}, {"status": "active", "site": "devsite", "street": "", "geo": {"lat": 47.497911999999999, "lng": 19.040234999999999}, "city": "Budapest", "name": "GDG Budapest", "country": "Hungary", "chapter_id": "", "state": "", "gplus_id": "109554147114014091559", "group_type": "GDG"}, {"status": "active", "site": "devsite", "street": "", "geo": {"lat": 35.689487499999998, "lng": 139.69170639999999}, "city": "Tokyo", "name": "GDG Tokyo", "country": "Japan", "chapter_id": "23", "state": "", "gplus_id": "109573275320754186076", "group_type": "GDG"}, {"status": "active", "site": "devsite", "street": "", "geo": {"lat": 19.075983699999998, "lng": 72.877655899999993}, "city": "Mumbai,Maharashtra", "name": "GDG Mumbai", "country": "India", "chapter_id": "", "state": "Maharashtra", "gplus_id": "109582787530740759595", "group_type": "GDG"}, {"status": "active", "site": "devsite", "street": "", "geo": {"lat": 36.452288299999999, "lng": -93.188513}, "city": "Omaha", "name": "GDG Northwest Arkansas", "country": "United States", "chapter_id": "", "state": "AR", "gplus_id": "109596331895051634773", "group_type": "GDG"}, {"status": "active", "site": "devsite", "street": "", "geo": {"lat": -1.2920659000000001, "lng": 36.821946199999999}, "city": "Nairobi", "name": "GDG JKUAT", "country": "Kenya", "chapter_id": "", "state": "", "gplus_id": "109598956485644999920", "group_type": "GDG"}, {"status": "incubating", "site": "devsite", "street": "", "geo": {"lat": 61.2180556, "lng": -149.9002778}, "city": "Anchorage", "name": "GDG Anchorage", "country": "United States", "chapter_id": "", "state": "Alaska", "gplus_id": "109660073988733626164", "group_type": "GDG"}, {"status": "active", "site": "devsite", "street": "", "geo": {"lat": 45.508669900000001, "lng": -73.553992499999993}, "city": "Montreal", "name": "GDG Montreal Android", "country": "Canada", "chapter_id": "", "state": "ON", "gplus_id": "109736270049664372028", "group_type": "GDG"}, {"status": "active", "site": "devsite", "street": "", "geo": {"lat": 42.461790200000003, "lng": 14.216089800000001}, "city": "Pescara", "name": "GDG Pescara", "country": "Italy", "chapter_id": "", "state": "", "gplus_id": "109764437711338482169", "group_type": "GDG"}, {"status": "active", "site": "devsite", "street": "", "geo": {"lat": 49.009148000000003, "lng": 8.3799443999999994}, "city": "Karlsruhe", "name": "GDG Karlsruhe", "country": "Germany", "chapter_id": "1010", "state": "", "gplus_id": "109775289623271731783", "group_type": "GDG"}, {"status": "active", "site": "devsite", "street": "", "geo": {"lat": 8.4542362999999998, "lng": 124.6318977}, "city": "Cagayan De Oro", "name": "GDG Cagayan de Oro", "country": "Philippines", "chapter_id": "", "state": "", "gplus_id": "109777245615877849664", "group_type": "GDG"}, {"status": "active", "site": "devsite", "street": "", "geo": {"lat": 7.3963888999999998, "lng": 3.9166666999999999}, "city": "Ibadan", "name": "GDG Ibadan", "country": "Nigeria", "chapter_id": "", "state": "Oyo", "gplus_id": "109813433389926474050", "group_type": "GDG"}, {"status": "active", "site": "devsite", "street": "", "geo": {"lat": 54.687155500000003, "lng": 25.279651399999999}, "city": "Vilnius", "name": "GDG Vilnius", "country": "Lithuania", "chapter_id": "", "state": "", "gplus_id": "109861037894263174818", "group_type": "GDG"}, {"status": "active", "site": "devsite", "street": "", "geo": {"lat": 22.7195687, "lng": 75.857725799999997}, "city": "Indore", "name": "GDG Indore", "country": "India", "chapter_id": "", "state": "", "gplus_id": "109863280595977439143", "group_type": "GDG"}, {"status": "active", "site": "devsite", "street": "", "geo": {"lat": 2.7793199, "lng": 32.284827999999997}, "city": "Gulu", "name": "GDG Gulu", "country": "Uganda", "chapter_id": "", "state": "Gulu", "gplus_id": "109902375049302599424", "group_type": "GDG"}, {"status": "active", "site": "devsite", "street": "", "geo": {"lat": 26.147129, "lng": 91.735551099999995}, "city": "Guwahati", "name": "GDG IIT Guwahati", "country": "India", "chapter_id": "", "state": "", "gplus_id": "109902596446734053804", "group_type": "GDG"}, {"status": "incubating", "site": "devsite", "street": "", "geo": {"lat": 5.1166666999999997, "lng": 7.3666666999999997}, "city": "Aba", "name": "GDG Abia Poly", "country": "Nigeria", "chapter_id": "", "state": "Abia", "gplus_id": "110072242410958082966", "group_type": "GDG"}, {"status": "active", "site": "devsite", "street": "", "geo": {"lat": -12.0478158, "lng": -77.062202799999994}, "city": "Lima", "name": "GDG Lima", "country": "Peru", "chapter_id": "", "state": "", "gplus_id": "110122706499918118028", "group_type": "GDG"}, {"status": "active", "site": "devsite", "street": "", "geo": {"lat": 34.655145599999997, "lng": 133.9195019}, "city": "Okayama", "name": "GDG Chugoku", "country": "Japan", "chapter_id": "376002", "state": "", "gplus_id": "110177155288519600576", "group_type": "GDG"}, {"status": "active", "site": "devsite", "street": "", "geo": {"lat": 52.406374, "lng": 16.9251681}, "city": "Pozna\u0144", "name": "GDG Pozna\u0144", "country": "Poland", "chapter_id": "910027", "state": "", "gplus_id": "110191013153077917985", "group_type": "GDG"}, {"status": "active", "site": "devsite", "street": "", "geo": {"lat": 34.745159000000001, "lng": 10.7613}, "city": "Sfax", "name": "GDG Sfax", "country": "Tunisia", "chapter_id": "", "state": "", "gplus_id": "110277621604181263838", "group_type": "GDG"}, {"status": "active", "site": "devsite", "street": "", "geo": {"lat": 46.777248, "lng": 23.599889900000001}, "city": "Cluj-Napoca", "name": "GDG Cluj-Napoca", "country": "Romania", "chapter_id": "1081001", "state": "", "gplus_id": "110300482287055515286", "group_type": "GDG"}, {"status": "active", "site": "devsite", "street": "", "geo": {"lat": 50.450099999999999, "lng": 30.523399999999999}, "city": "Kiev", "name": "GDG Kyiv-Center", "country": "Ukraine", "chapter_id": "36006", "state": "", "gplus_id": "110301321530950732281", "group_type": "GDG"}, {"status": "active", "site": "devsite", "street": "", "geo": {"lat": -0.60567499999999996, "lng": 30.64855}, "city": "Mbarara", "name": "GDG Mbarara", "country": "Uganda", "chapter_id": "", "state": "Mbarara", "gplus_id": "110391140569788670287", "group_type": "GDG"}, {"status": "active", "site": "devsite", "street": "", "geo": {"lat": 48.775418100000003, "lng": 9.181758799999999}, "city": "Stuttgart", "name": "GDG Stuttgart", "country": "Germany", "chapter_id": "41007", "state": "", "gplus_id": "110418713081470246659", "group_type": "GDG"}, {"status": "active", "site": "devsite", "street": "", "geo": {"lat": 8.4874948999999997, "lng": 76.948622999999998}, "city": "Thiruvanathapuram", "name": "GDG Thiruvanathapuram", "country": "India", "chapter_id": "", "state": "", "gplus_id": "110441223852820157926", "group_type": "GDG"}, {"status": "active", "site": "devsite", "street": "", "geo": {"lat": 15.299326499999999, "lng": 74.123995999999991}, "city": "Goa", "name": "GDG GAUG", "country": "India", "chapter_id": "", "state": "", "gplus_id": "110448195989468248957", "group_type": "GDG"}, {"status": "incubating", "site": "devsite", "street": "", "geo": {"lat": 5.5499999999999998, "lng": -0.20000000000000001}, "city": "Accra", "name": "GDG Ashesi", "country": "Ghana", "chapter_id": "", "state": "", "gplus_id": "110457967927902741919", "group_type": "GDG"}, {"status": "active", "site": "devsite", "street": "", "geo": {"lat": 7.6166666999999997, "lng": 5.2166666999999993}, "city": "Ado Ekiti", "name": "GDG Ado-Ekiti", "country": "Nigeria", "chapter_id": "", "state": "Ekiti State", "gplus_id": "110463793540880663642", "group_type": "GDG"}, {"status": "active", "site": "devsite", "street": "", "geo": {"lat": 38.040149900000003, "lng": 14.6412925}, "city": "Sant'Agata di Militello", "name": "GDG Nebrodi", "country": "Italy", "chapter_id": "938002", "state": "", "gplus_id": "110525413309040576910", "group_type": "GDG"}, {"status": "active", "site": "devsite", "street": "", "geo": {"lat": 40.014985600000003, "lng": -105.27054560000001}, "city": "Boulder", "name": "GDG Boulder", "country": "United States", "chapter_id": "", "state": "Colorado", "gplus_id": "110545238773247324753", "group_type": "GDG"}, {"status": "active", "site": "devsite", "street": "", "geo": {"lat": 45.508669900000001, "lng": -73.553992499999993}, "city": "Montreal", "name": "GDG Montreal", "country": "Canada", "chapter_id": "1008001", "state": "ON", "gplus_id": "110580464422964848613", "group_type": "GDG"}, {"status": "active", "site": "devsite", "street": "", "geo": {"lat": 41.892916300000003, "lng": 12.4825199}, "city": "Rome", "name": "GDG Roma Lab", "country": "Italy", "chapter_id": "", "state": "", "gplus_id": "110676501469531199993", "group_type": "GDG"}, {"status": "incubating", "site": "devsite", "street": "", "geo": {"lat": 36.330228400000003, "lng": -119.2920585}, "city": "Visalia", "name": "GDG Visalia", "country": "United States", "chapter_id": "", "state": "CA", "gplus_id": "110693348365607163603", "group_type": "GDG"}, {"status": "active", "site": "devsite", "street": "", "geo": {"lat": 1.0805556000000001, "lng": 34.174999999999997}, "city": "Mbale", "name": "GDG Mbale", "country": "Uganda", "chapter_id": "1002003", "state": "", "gplus_id": "110714037127010734147", "group_type": "GDG"}, {"status": "incubating", "site": "devsite", "street": "", "geo": {"lat": 30.013055699999999, "lng": 31.2088526}, "city": "Giza", "name": "GDG Giza", "country": "Egypt", "chapter_id": "", "state": "", "gplus_id": "110723285997692504997", "group_type": "GDG"}, {"status": "active", "site": "devsite", "street": "", "geo": {"lat": 25.542844299999999, "lng": -103.40678610000001}, "city": "Torreon", "name": "GDG Laguna", "country": "Mexico", "chapter_id": "1017", "state": "", "gplus_id": "110737172165250766203", "group_type": "GDG"}, {"status": "active", "site": "devsite", "street": "", "geo": {"lat": 60.205491100000003, "lng": 24.6559001}, "city": "Espoo", "name": "GDG Espoo", "country": "Finland", "chapter_id": "", "state": "", "gplus_id": "110750998798078446736", "group_type": "GDG"}, {"status": "active", "site": "devsite", "street": "", "geo": {"lat": 39.290384799999998, "lng": -76.612189299999997}, "city": "Baltimore", "name": "GDG Baltimore", "country": "United States", "chapter_id": "", "state": "Maryland", "gplus_id": "110756052249479910892", "group_type": "GDG"}, {"status": "active", "site": "devsite", "street": "", "geo": {"lat": 52.021296499999998, "lng": 8.5302965999999998}, "city": "Bielefeld", "name": "GDG Ostwestfalen Lippe", "country": "Germany", "chapter_id": "18", "state": "", "gplus_id": "110766026125672209668", "group_type": "GDG"}, {"status": "active", "site": "devsite", "street": "Dumas Rd, Ichchhanath, Surat, Gujarat, 395007", "geo": {"lat": 21.167617199999999, "lng": 72.785133599999995}, "city": "Surat", "name": "GDG NIT Surat", "country": "India", "chapter_id": "", "state": "Gujarat", "gplus_id": "110808083137842746831", "group_type": "GDG"}, {"status": "incubating", "site": "devsite", "street": "", "geo": {"lat": -25.4200388, "lng": -49.265097300000001}, "city": "Curitiba", "name": "GDG Curitiba", "country": "Brazil", "chapter_id": "", "state": "PR", "gplus_id": "110842096565516849829", "group_type": "GDG"}, {"status": "active", "site": "devsite", "street": "", "geo": {"lat": -5.2000000000000002, "lng": -80.63333329999999}, "city": "Piura", "name": "GDG Piura", "country": "Peru", "chapter_id": "", "state": "", "gplus_id": "110871378704297111344", "group_type": "GDG"}, {"status": "active", "site": "devsite", "street": "", "geo": {"lat": 41.118662899999997, "lng": 1.24533}, "city": "Tarragona", "name": "GDG Tarragona", "country": "Spain", "chapter_id": "", "state": "", "gplus_id": "110881000795710392242", "group_type": "GDG"}, {"status": "active", "site": "devsite", "street": "", "geo": {"lat": 32.624538899999997, "lng": -115.4522623}, "city": "Mexicali", "name": "GDG Mexicali", "country": "Mexico", "chapter_id": "", "state": "Baja California Norte", "gplus_id": "110948874951396867357", "group_type": "GDG"}, {"status": "active", "site": "devsite", "street": "", "geo": {"lat": 24.479834, "lng": 118.08942500000001}, "city": "Xiamen", "name": "GDG Xiamen", "country": "China", "chapter_id": "", "state": "", "gplus_id": "110967416369300099369", "group_type": "GDG"}, {"status": "incubating", "site": "devsite", "street": "", "geo": {"lat": -2.5391099000000001, "lng": -44.282904599999988}, "city": "S\u00e3o Luis", "name": "GDG S\u00e3o Luis", "country": "Brazil", "chapter_id": "", "state": "MA", "gplus_id": "110989914818554163164", "group_type": "GDG"}, {"status": "active", "site": "devsite", "street": "", "geo": {"lat": 30.4659929, "lng": 31.184830699999999}, "city": "Benha", "name": "GDG Benha", "country": "Egypt", "chapter_id": "959005", "state": "", "gplus_id": "111001138087016033713", "group_type": "GDG"}, {"status": "active", "site": "devsite", "street": "", "geo": {"lat": 26.238946899999998, "lng": 73.024309399999993}, "city": "Jodhpur", "name": "GDG Jodhpur", "country": "India", "chapter_id": "", "state": "Rajasthan", "gplus_id": "111014253228149858796", "group_type": "GDG"}, {"status": "active", "site": "devsite", "street": "", "geo": {"lat": 36.818809999999999, "lng": 10.16596}, "city": "Tunis", "name": "GDG Tunis", "country": "Tunisia", "chapter_id": "905026", "state": "", "gplus_id": "111082770720976612303", "group_type": "GDG"}, {"status": "active", "site": "devsite", "street": "", "geo": {"lat": 37.444916800000001, "lng": 127.13886840000001}, "city": "Seongnam", "name": "GDG Korea WebTech", "country": "South Korea", "chapter_id": "", "state": "", "gplus_id": "111126730890028720234", "group_type": "GDG"}, {"status": "active", "site": "devsite", "street": "", "geo": {"lat": 16.402333200000001, "lng": 120.59600709999999}, "city": "Baguio", "name": "GDG Baguio", "country": "Philippines", "chapter_id": "", "state": "", "gplus_id": "111137079504396580440", "group_type": "GDG"}, {"status": "active", "site": "devsite", "street": "", "geo": {"lat": -5.7944784999999994, "lng": -35.210953099999998}, "city": "Natal", "name": "GDG Natal", "country": "Brazil", "chapter_id": "", "state": "RN", "gplus_id": "111142392900301029730", "group_type": "GDG"}, {"status": "active", "site": "devsite", "street": "", "geo": {"lat": 46.070091499999997, "lng": 11.1197626}, "city": "Trento", "name": "GDG Trento", "country": "Italy", "chapter_id": "857001", "state": "", "gplus_id": "111161676776647373558", "group_type": "GDG"}, {"status": "incubating", "site": "devsite", "street": "", "geo": {"lat": 2.9166666999999999, "lng": 11.15}, "city": "Ebolowa", "name": "GDG Ebolowa", "country": "Cameroon", "chapter_id": "", "state": "", "gplus_id": "111178393301647569325", "group_type": "GDG"}, {"status": "active", "site": "devsite", "street": "University Road", "geo": {"lat": 0.33273900000000001, "lng": 32.568476699999998}, "city": "Kampala", "name": "GDG Makerere", "country": "Uganda", "chapter_id": "287001", "state": "", "gplus_id": "111272613539973122492", "group_type": "GDG"}, {"status": "active", "site": "devsite", "street": "", "geo": {"lat": 28.363810000000001, "lng": 75.602158000000003}, "city": "Pilani", "name": "GDG BITS Pilani", "country": "India", "chapter_id": "1054001", "state": "", "gplus_id": "111296394388839216667", "group_type": "GDG"}, {"status": "active", "site": "devsite", "street": "", "geo": {"lat": 36.752887000000001, "lng": 3.0420479999999999}, "city": "Algiers", "name": "GDG Algiers", "country": "Algeria", "chapter_id": "996006", "state": "", "gplus_id": "111309779341768878739", "group_type": "GDG"}, {"status": "active", "site": "devsite", "street": "", "geo": {"lat": 26.912416499999999, "lng": 75.787287899999995}, "city": "Jaipur,Rajasthan", "name": "GDG LNMIIT Jaipur", "country": "India", "chapter_id": "", "state": "Rajasthan", "gplus_id": "111359547963135248341", "group_type": "GDG"}, {"status": "active", "site": "devsite", "street": "", "geo": {"lat": 46.860518900000002, "lng": -114.01950100000001}, "city": "Missoula", "name": "GDG Missoula", "country": "United States", "chapter_id": "", "state": "Montana", "gplus_id": "111439872924209508980", "group_type": "GDG"}, {"status": "active", "site": "devsite", "street": "", "geo": {"lat": 38.115687899999998, "lng": 13.361267099999999}, "city": "Palermo", "name": "GDG Palermo", "country": "Italy", "chapter_id": "35001", "state": "", "gplus_id": "111445091579754468671", "group_type": "GDG"}, {"status": "active", "site": "devsite", "street": "", "geo": {"lat": 45.465454200000003, "lng": 9.1865159999999992}, "city": "Milano", "name": "GDG Milan", "country": "Italy", "chapter_id": "909019", "state": "", "gplus_id": "111537749545250109648", "group_type": "GDG"}, {"status": "active", "site": "devsite", "street": "", "geo": {"lat": 17.087222199999999, "lng": 120.97555560000001}, "city": "Bontoc", "name": "GDG Halsema", "country": "Philippines", "chapter_id": "", "state": "", "gplus_id": "111624169093759630469", "group_type": "GDG"}, {"status": "active", "site": "devsite", "street": "", "geo": {"lat": 18.787747700000001, "lng": 98.993131099999999}, "city": "Chiang Mai", "name": "GDG Chiang Mai", "country": "Thailand", "chapter_id": "", "state": "", "gplus_id": "111754721762299319444", "group_type": "GDG"}, {"status": "active", "site": "devsite", "street": "", "geo": {"lat": 22.303894499999998, "lng": 70.802159899999992}, "city": "Rajkot", "name": "GDG Rajkot", "country": "India", "chapter_id": "", "state": "", "gplus_id": "111808846375797776302", "group_type": "GDG"}, {"status": "active", "site": "devsite", "street": "Jinja - Tororo Highway", "geo": {"lat": 0.6927778, "lng": 34.181111100000003}, "city": "Tororo", "name": "GDG Busitema", "country": "Uganda", "chapter_id": "", "state": "", "gplus_id": "111838817416099422384", "group_type": "GDG"}, {"status": "active", "site": "devsite", "street": "", "geo": {"lat": 42.033360700000003, "lng": -88.083405900000002}, "city": "Schaumburg", "name": "GDG Schaumburg ", "country": "United States", "chapter_id": "", "state": "Illinois", "gplus_id": "111851281564260689455", "group_type": "GDG"}, {"status": "active", "site": "devsite", "street": "", "geo": {"lat": 10.640738900000001, "lng": 122.9689565}, "city": "Bacolod", "name": "GDG Bacolod", "country": "Philippines", "chapter_id": "1164009", "state": "", "gplus_id": "111881770223033262444", "group_type": "GDG"}, {"status": "active", "site": "devsite", "street": "", "geo": {"lat": 40.562170399999999, "lng": -111.929658}, "city": "South Jordan", "name": "GDG Utah", "country": "United States", "chapter_id": "41", "state": "UT", "gplus_id": "111917982940065392922", "group_type": "GDG"}, {"status": "active", "site": "devsite", "street": "", "geo": {"lat": 50.075538100000003, "lng": 14.4378005}, "city": "Prague", "name": "GDG Prague", "country": "Czech Republic", "chapter_id": "", "state": "", "gplus_id": "111919016509847766513", "group_type": "GDG"}, {"status": "active", "site": "devsite", "street": "", "geo": {"lat": 15.299326499999999, "lng": 74.123995999999991}, "city": "Goa", "name": "GDG Goa", "country": "India", "chapter_id": "402001", "state": "", "gplus_id": "112031508193690787710", "group_type": "GDG"}, {"status": "active", "site": "devsite", "street": "", "geo": {"lat": -4.3835997000000004, "lng": 15.2821537}, "city": "Kisantu", "name": "GDG Kisantu", "country": "Congo, DRC", "chapter_id": "", "state": "", "gplus_id": "112156910952138034910", "group_type": "GDG"}, {"status": "active", "site": "devsite", "street": "", "geo": {"lat": 42.2808256, "lng": -83.743037799999996}, "city": "Ann Arbor", "name": "GDG Ann Arbor Android", "country": "United States", "chapter_id": "", "state": "MI", "gplus_id": "112215001458553713484", "group_type": "GDG"}, {"status": "active", "site": "devsite", "street": "", "geo": {"lat": 6.5243792999999997, "lng": 3.3792057}, "city": "Lagos", "name": "GDG Lagos", "country": "Nigeria", "chapter_id": "41006", "state": "", "gplus_id": "112227844855698647164", "group_type": "GDG"}, {"status": "active", "site": "devsite", "street": "", "geo": {"lat": 6.687119, "lng": -1.621969}, "city": "Kumasi", "name": "GDG KNUST", "country": "Ghana", "chapter_id": "299001", "state": "", "gplus_id": "112443472054170169826", "group_type": "GDG"}, {"status": "active", "site": "devsite", "street": "", "geo": {"lat": 37.074152599999998, "lng": 14.2403537}, "city": "Gela", "name": "GDG Gela", "country": "Italy", "chapter_id": "", "state": "", "gplus_id": "112454638433901035373", "group_type": "GDG"}, {"status": "incubating", "site": "devsite", "street": "", "geo": {"lat": -21.173611099999999, "lng": 27.512499999999999}, "city": "Francistown", "name": "GDG Francistown", "country": "Botswana", "chapter_id": "", "state": "", "gplus_id": "112501264740608560290", "group_type": "GDG"}, {"status": "active", "site": "devsite", "street": "", "geo": {"lat": 23.2248196, "lng": 72.646376899999993}, "city": "Gandhinagar,Gujarat", "name": "GDG DA-IICT Gandhinagar", "country": "India", "chapter_id": "", "state": "Gujarat", "gplus_id": "112567231965124788407", "group_type": "GDG"}, {"status": "active", "site": "devsite", "street": "", "geo": {"lat": 41.308273999999997, "lng": -72.927883499999993}, "city": "New Haven", "name": "GDG New Haven", "country": "United States", "chapter_id": "", "state": "Connecticut", "gplus_id": "112584335094844154006", "group_type": "GDG"}, {"status": "active", "site": "devsite", "street": "", "geo": {"lat": 11.558831, "lng": 104.917445}, "city": "Phnom Penh", "name": "GDG Phnom Penh", "country": "Cambodia", "chapter_id": "1038001", "state": "", "gplus_id": "112613035129643336757", "group_type": "GDG"}, {"status": "active", "site": "devsite", "street": "", "geo": {"lat": 42.562966799999998, "lng": -114.46087110000001}, "city": "Twin Falls", "name": "GDG Southern Idaho", "country": "United States", "chapter_id": "926001", "state": "ID", "gplus_id": "112660287653273028459", "group_type": "GDG"}, {"status": "incubating", "site": "devsite", "street": "", "geo": {"lat": 49.303454000000002, "lng": 14.158029000000001}, "city": "P\u00edsek", "name": "GDG P\u00edsek", "country": "Czech Republic", "chapter_id": "", "state": "", "gplus_id": "112711498505147834688", "group_type": "GDG"}, {"status": "active", "site": "devsite", "street": "", "geo": {"lat": 37.503413799999997, "lng": 126.7660309}, "city": "Bucheon", "name": "GDG Korea Golang", "country": "South Korea", "chapter_id": "", "state": "", "gplus_id": "112714242728066184635", "group_type": "GDG"}, {"status": "active", "site": "devsite", "street": "", "geo": {"lat": 35.1795543, "lng": 129.07564160000001}, "city": "Busan", "name": "GDG Busan", "country": "South Korea", "chapter_id": "", "state": "", "gplus_id": "112760983812496457564", "group_type": "GDG"}, {"status": "incubating", "site": "devsite", "street": "", "geo": {"lat": 47.560541299999997, "lng": -52.712831500000007}, "city": "St John's", "name": "GDG St John's", "country": "Canada", "chapter_id": "", "state": "NL", "gplus_id": "112778328671383583363", "group_type": "GDG"}, {"status": "active", "site": "devsite", "street": "", "geo": {"lat": -16.499009900000001, "lng": -68.146248}, "city": "La Paz", "name": "GDG La Paz", "country": "Bolivia", "chapter_id": "Not listed", "state": "", "gplus_id": "112806249393123340567", "group_type": "GDG"}, {"status": "active", "site": "devsite", "street": "", "geo": {"lat": 27.0, "lng": 84.866666699999996}, "city": "Birgunj", "name": "GDG Birgunj", "country": "Nepal", "chapter_id": "", "state": "", "gplus_id": "112807703637841959875", "group_type": "GDG"}, {"status": "active", "site": "devsite", "street": "", "geo": {"lat": 37.774929499999999, "lng": -122.4194155}, "city": "San Francisco", "name": "GDG San Francisco", "country": "United States", "chapter_id": "New GDG", "state": "CA", "gplus_id": "112827178820569405644", "group_type": "GDG"}, {"status": "active", "site": "devsite", "street": "Zacatenco", "geo": {"lat": 19.504602500000001, "lng": -99.131433800000011}, "city": "Mexico City", "name": "GDG IPN", "country": "Mexico", "chapter_id": "", "state": "", "gplus_id": "112844737739569862351", "group_type": "GDG"}, {"status": "incubating", "site": "devsite", "street": "", "geo": {"lat": -19.8333333, "lng": 34.850000000000001}, "city": "Beira", "name": "GDG Beira", "country": "Mozambique", "chapter_id": "", "state": "", "gplus_id": "112910758975451069922", "group_type": "GDG"}, {"status": "active", "site": "devsite", "street": "", "geo": {"lat": 40.416690899999999, "lng": -3.7003453999999989}, "city": "Madrid", "name": "GDG Madrid", "country": "Spain", "chapter_id": "26", "state": "", "gplus_id": "112952310970563894279", "group_type": "GDG"}, {"status": "active", "site": "devsite", "street": "", "geo": {"lat": -0.091701599999999994, "lng": 34.7679568}, "city": "Kisumu", "name": "GDG Kisumu", "country": "Kenya", "chapter_id": "", "state": "", "gplus_id": "112962354634647547381", "group_type": "GDG"}, {"status": "active", "site": "devsite", "street": "", "geo": {"lat": 44.432499999999997, "lng": 26.103888900000001}, "city": "Bucharest", "name": "GDG Bucharest", "country": "Romania", "chapter_id": "13002", "state": "", "gplus_id": "112968068864186499076", "group_type": "GDG"}, {"status": "incubating", "site": "devsite", "street": "", "geo": {"lat": 49.593778, "lng": 17.250878700000001}, "city": "Olomouc", "name": "GDG Olomouc", "country": "Czech Republic", "chapter_id": "", "state": "", "gplus_id": "112974753556160699070", "group_type": "GDG"}, {"status": "active", "site": "devsite", "street": "", "geo": {"lat": 43.2566901, "lng": -2.9240615999999999}, "city": "Bilbao", "name": "GDG Bilbao", "country": "Spain", "chapter_id": "788001", "state": "Vizcaya", "gplus_id": "112983420398182870109", "group_type": "GDG"}, {"status": "active", "site": "devsite", "street": "", "geo": {"lat": 24.571269900000001, "lng": 73.691543899999999}, "city": "Udaipur,Rajasthan", "name": "GDG Udaipur", "country": "India", "chapter_id": "", "state": "Rajasthan", "gplus_id": "113052214642441262354", "group_type": "GDG"}, {"status": "active", "site": "devsite", "street": "", "geo": {"lat": 52.370215700000003, "lng": 4.8951679000000006}, "city": "Amsterdam", "name": "GDG Dutch Android User Group", "country": "Netherlands", "chapter_id": "", "state": "", "gplus_id": "113182948271879290904", "group_type": "GDG"}, {"status": "active", "site": "devsite", "street": "", "geo": {"lat": 53.899999999999999, "lng": 27.566666699999999}, "city": "Minsk", "name": "GDG Minsk", "country": "Belarus", "chapter_id": "", "state": "", "gplus_id": "113201184286137496581", "group_type": "GDG"}, {"status": "active", "site": "devsite", "street": "", "geo": {"lat": -16.686891200000002, "lng": -49.264794299999998}, "city": "Goi\u00e2nia", "name": "GDG Goi\u00e2nia", "country": "Brazil", "chapter_id": "4", "state": "Goi\u00e1s", "gplus_id": "113297226237632387507", "group_type": "GDG"}, {"status": "active", "site": "devsite", "street": "Universidad de Quindio", "geo": {"lat": 4.5612224000000001, "lng": -75.653558699999991}, "city": "Armenia", "name": "GDG Quindio", "country": "Colombia", "chapter_id": "", "state": "Quindio", "gplus_id": "113306632199215309356", "group_type": "GDG"}, {"status": "active", "site": "devsite", "street": "", "geo": {"lat": 22.270714999999999, "lng": 113.57672599999999}, "city": "Zhuhai", "name": "GDG Zhuhai", "country": "China", "chapter_id": "", "state": "", "gplus_id": "113382777332300419074", "group_type": "GDG"}, {"status": "active", "site": "devsite", "street": "", "geo": {"lat": 32.830361000000003, "lng": 34.974338000000003}, "city": "Haifa", "name": "GDG Haifa", "country": "Israel", "chapter_id": "", "state": "", "gplus_id": "113389230669974437854", "group_type": "GDG"}, {"status": "active", "site": "devsite", "street": "", "geo": {"lat": 31.230392999999999, "lng": 121.473704}, "city": "Shanghai", "name": "GDG Shanghai", "country": "China", "chapter_id": "12", "state": "", "gplus_id": "113435072768494915958", "group_type": "GDG"}, {"status": "active", "site": "devsite", "street": "", "geo": {"lat": 29.966834299999999, "lng": 32.5498069}, "city": "Suez", "name": "GDG Suez", "country": "Egypt", "chapter_id": "", "state": "", "gplus_id": "113495205800473064134", "group_type": "GDG"}, {"status": "active", "site": "devsite", "street": "", "geo": {"lat": 29.3184918, "lng": 47.980673600000003}, "city": "Kuwait City", "name": "GDG Kuwait", "country": "Kuwait", "chapter_id": "", "state": "", "gplus_id": "113524358246094158685", "group_type": "GDG"}, {"status": "incubating", "site": "devsite", "street": "", "geo": {"lat": 36.8529263, "lng": -75.97798499999999}, "city": "Virginia Beach", "name": "GDG Hampton Roads", "country": "United States", "chapter_id": "", "state": "Virginia", "gplus_id": "113573239350627723932", "group_type": "GDG"}, {"status": "active", "site": "devsite", "street": "", "geo": {"lat": 5.3363179999999986, "lng": -4.0277509999999994}, "city": "Abidjan", "name": "GDG Abidjan", "country": "Cote d'Ivoire", "chapter_id": "172002", "state": "", "gplus_id": "113606713694474914582", "group_type": "GDG"}, {"status": "incubating", "site": "devsite", "street": "", "geo": {"lat": 37.566535000000002, "lng": 126.9779692}, "city": "Seoul", "name": "GDG Korea Cloud", "country": "South Korea", "chapter_id": "", "state": "", "gplus_id": "113669764989775524467", "group_type": "GDG"}, {"status": "active", "site": "devsite", "street": "", "geo": {"lat": 25.7890972, "lng": -80.204043499999997}, "city": "Miami", "name": "GDG South Florida", "country": "United States", "chapter_id": "376001", "state": "FL", "gplus_id": "113675373333503830488", "group_type": "GDG"}, {"status": "active", "site": "devsite", "street": "Jayway, Sj\u00e6leboderne 2, 2 sal th. 1122 Copenhagen", "geo": {"lat": 55.676096800000003, "lng": 12.568337100000001}, "city": "Copenhagen", "name": "GDG Copenhagen", "country": "Denmark", "chapter_id": "", "state": "", "gplus_id": "113724797202166933848", "group_type": "GDG"}, {"status": "active", "site": "devsite", "street": "", "geo": {"lat": 7.6880889999999997, "lng": -5.0306540000000002}, "city": "Bouak\u00e9", "name": "GDG Bouak\u00e9", "country": "Cote d'Ivoire", "chapter_id": "", "state": "", "gplus_id": "113734149142149089982", "group_type": "GDG"}, {"status": "incubating", "site": "devsite", "street": "", "geo": {"lat": 37.983715500000002, "lng": 23.729309700000002}, "city": "Athens", "name": "GDG Athens", "country": "Greece", "chapter_id": "", "state": "", "gplus_id": "113791237868247187504", "group_type": "GDG"}, {"status": "active", "site": "devsite", "street": "", "geo": {"lat": 7.2500000000000009, "lng": 5.1949999999999994}, "city": "Akure", "name": "GDG Akure", "country": "Nigeria", "chapter_id": "394001", "state": "", "gplus_id": "113800801882072410635", "group_type": "GDG"}, {"status": "incubating", "site": "devsite", "street": "", "geo": {"lat": -29.169939400000001, "lng": -51.186263500000003}, "city": "Serra Ga\u00facha", "name": "GDG Serra Ga\u00facha", "country": "Brazil", "chapter_id": "", "state": "RS", "gplus_id": "113855774434357118364", "group_type": "GDG"}, {"status": "active", "site": "devsite", "street": "", "geo": {"lat": 49.847065999999998, "lng": 3.2873999999999999}, "city": "Saint-Quentin", "name": "GDG Hi Pic", "country": "France", "chapter_id": "", "state": "", "gplus_id": "113891110741520781629", "group_type": "GDG"}, {"status": "active", "site": "devsite", "street": "", "geo": {"lat": -2.5166667, "lng": 32.899999999999999}, "city": "Mwanza", "name": "GDG Mwanza", "country": "Tanzania", "chapter_id": "", "state": "Mwanza", "gplus_id": "113901864922964546168", "group_type": "GDG"}, {"status": "active", "site": "devsite", "street": "", "geo": {"lat": 0.35333330000000002, "lng": 32.755277800000002}, "city": "Mukono", "name": " GDG Mukono", "country": "Uganda", "chapter_id": "", "state": "Mukono", "gplus_id": "113950174210914888898", "group_type": "GDG"}, {"status": "active", "site": "devsite", "street": "", "geo": {"lat": 59.913868800000003, "lng": 10.7522454}, "city": "Oslo", "name": "GDG Oslo", "country": "Norway", "chapter_id": "", "state": "", "gplus_id": "113962199449694311661", "group_type": "GDG"}, {"status": "active", "site": "devsite", "street": "", "geo": {"lat": 43.825592, "lng": 87.61684799999999}, "city": "Urumqi", "name": "GDG Urumqi", "country": "China", "chapter_id": "", "state": "", "gplus_id": "113990579362109292040", "group_type": "GDG"}, {"status": "active", "site": "devsite", "street": "", "geo": {"lat": 31.0409483, "lng": 31.378470400000001}, "city": "Mansoura", "name": "GDG Mansoura", "country": "Egypt", "chapter_id": "1020003", "state": "", "gplus_id": "114002342261217755023", "group_type": "GDG"}, {"status": "active", "site": "devsite", "street": "", "geo": {"lat": 51.107885199999998, "lng": 17.038537600000002}, "city": "Wroc\u0142aw", "name": "GDG Wroc\u0142aw", "country": "Poland", "chapter_id": "1101003", "state": "", "gplus_id": "114034723187684195194", "group_type": "GDG"}, {"status": "active", "site": "devsite", "street": "", "geo": {"lat": 11.2587531, "lng": 75.780410000000003}, "city": "Kozhikode,Kerala", "name": "GDG Kozhikode", "country": "India", "chapter_id": "", "state": "Kerala", "gplus_id": "114055418793204110473", "group_type": "GDG"}, {"status": "active", "site": "devsite", "street": "", "geo": {"lat": 28.463629600000001, "lng": -16.251846700000002}, "city": "Santa Cruz de Tenerife", "name": "GDG Tenerife", "country": "Spain", "chapter_id": "", "state": "Canary Islands", "gplus_id": "114098393732890092873", "group_type": "GDG"}, {"status": "active", "site": "devsite", "street": "", "geo": {"lat": 39.904029999999999, "lng": 116.407526}, "city": "Beijing", "name": "GDG Beijing", "country": "China", "chapter_id": "10", "state": "", "gplus_id": "114116331730392650768", "group_type": "GDG"}, {"status": "active", "site": "devsite", "street": "", "geo": {"lat": 50.7753455, "lng": 6.083886800000001}, "city": "Aachen", "name": "GDG Aachen", "country": "Germany", "chapter_id": "650001", "state": "", "gplus_id": "114125193250240340259", "group_type": "GDG"}, {"status": "active", "site": "devsite", "street": "", "geo": {"lat": 32.990614000000001, "lng": 112.528345}, "city": "Nanyang", "name": "GDG NanYang", "country": "China", "chapter_id": "795002", "state": "", "gplus_id": "114126261414805241249", "group_type": "GDG"}, {"status": "incubating", "site": "devsite", "street": "", "geo": {"lat": 12.295810400000001, "lng": 76.639380500000001}, "city": "Mysore", "name": "GDG Mysore", "country": "India", "chapter_id": "", "state": "Karnataka", "gplus_id": "114166198340872133624", "group_type": "GDG"}, {"status": "active", "site": "devsite", "street": "", "geo": {"lat": 31.9565783, "lng": 35.945695100000002}, "city": "Amman", "name": "GDG Polytechnic", "country": "Jordan", "chapter_id": "", "state": "", "gplus_id": "114173936485671050232", "group_type": "GDG"}, {"status": "incubating", "site": "devsite", "street": "", "geo": {"lat": 40.825900699999998, "lng": -74.209005300000001}, "city": "Montclair", "name": "GDG North Jersey", "country": "United States", "chapter_id": "", "state": "NJ", "gplus_id": "114176644944100969729", "group_type": "GDG"}, {"status": "active", "site": "devsite", "street": "", "geo": {"lat": 17.385044000000001, "lng": 78.486671000000001}, "city": "Hyderabad", "name": "GDG Hyderabad", "country": "India", "chapter_id": "20", "state": "", "gplus_id": "114190263289122404629", "group_type": "GDG"}, {"status": "active", "site": "devsite", "street": "Rungestrasse 20", "geo": {"lat": 52.512302699999999, "lng": 13.4197393}, "city": "Berlin", "name": "GDG Berlin Golang", "country": "Germany", "chapter_id": "", "state": "", "gplus_id": "114206505697282885347", "group_type": "GDG"}, {"status": "active", "site": "devsite", "street": "Lomas de Chapultepec", "geo": {"lat": 19.420165999999998, "lng": -99.220368699999995}, "city": "Mexico City", "name": "GDG Androititlan", "country": "Mexico", "chapter_id": "", "state": "", "gplus_id": "114224351719966253327", "group_type": "GDG"}, {"status": "active", "site": "devsite", "street": "", "geo": {"lat": 53.551084600000003, "lng": 9.9936817999999992}, "city": "Hamburg", "name": "GDG Hamburg", "country": "Germany", "chapter_id": "16", "state": "", "gplus_id": "114226021900650933814", "group_type": "GDG"}, {"status": "active", "site": "devsite", "street": "Universidad Interamericana  de Panam\u00e1", "geo": {"lat": 8.9837133999999992, "lng": -79.529761100000016}, "city": "Panama City", "name": "GDG Panama City", "country": "Panama", "chapter_id": "", "state": "", "gplus_id": "114236368833841441665", "group_type": "GDG"}, {"status": "active", "site": "devsite", "street": "", "geo": {"lat": 55.751241899999997, "lng": 37.618421699999999}, "city": "Moscow", "name": "GDG Moscow", "country": "Russia", "chapter_id": "312001", "state": "", "gplus_id": "114277365007836832886", "group_type": "GDG"}, {"status": "active", "site": "devsite", "street": "", "geo": {"lat": 15.85036, "lng": 74.504668999999993}, "city": "Belgaum,Karnataka", "name": "GDG Belgaum", "country": "India", "chapter_id": "", "state": "Karnataka", "gplus_id": "114286035682716151642", "group_type": "GDG"}, {"status": "active", "site": "devsite", "street": "", "geo": {"lat": 49.398378200000003, "lng": 15.5870415}, "city": "Jihlava", "name": "GDG Jihlava", "country": "Czech Republic", "chapter_id": "", "state": "", "gplus_id": "114298804346759031330", "group_type": "GDG"}, {"status": "active", "site": "devsite", "street": "", "geo": {"lat": 54.518889799999997, "lng": 18.530540899999998}, "city": "Gdynia", "name": "GDG Tr\u00f3jmiasto", "country": "Poland", "chapter_id": "1158010", "state": "", "gplus_id": "114322662895093851618", "group_type": "GDG"}, {"status": "incubating", "site": "devsite", "street": "", "geo": {"lat": 39.629525999999998, "lng": -79.955896799999991}, "city": "Morgantown", "name": "GDG Morgantown", "country": "United States", "chapter_id": "", "state": "WV", "gplus_id": "114349285984103462424", "group_type": "GDG"}, {"status": "active", "site": "devsite", "street": "", "geo": {"lat": -13.9833333, "lng": 33.783333300000002}, "city": "Lilongwe", "name": "GDG Lilongwe", "country": "Malawi", "chapter_id": "308001", "state": "", "gplus_id": "114373108530363798005", "group_type": "GDG"}, {"status": "active", "site": "devsite", "street": "", "geo": {"lat": 48.208174300000003, "lng": 16.3738189}, "city": "Vienna", "name": "GDG Vienna", "country": "Austria", "chapter_id": "785001", "state": "", "gplus_id": "114401474180682670911", "group_type": "GDG"}, {"status": "active", "site": "devsite", "street": "", "geo": {"lat": 40.233843800000002, "lng": -111.65853370000001}, "city": "Provo", "name": "GDG BYU", "country": "United States", "chapter_id": "", "state": "Utah", "gplus_id": "114488015735240589494", "group_type": "GDG"}, {"status": "active", "site": "devsite", "street": "", "geo": {"lat": 39.920769999999997, "lng": 32.854109999999999}, "city": "Ankara", "name": "GDG Ankara", "country": "Turkey", "chapter_id": "801003", "state": "", "gplus_id": "114568591151316164517", "group_type": "GDG"}, {"status": "active", "site": "devsite", "street": "", "geo": {"lat": 35.6969444, "lng": -0.63305559999999994}, "city": "Oran ", "name": "GDG Oran", "country": "Algeria", "chapter_id": "", "state": "", "gplus_id": "114570650781582666694", "group_type": "GDG"}, {"status": "active", "site": "devsite", "street": "", "geo": {"lat": 30.627977000000001, "lng": -96.334406799999996}, "city": "College Station", "name": "GDG TAMU", "country": "United States", "chapter_id": "", "state": "TX", "gplus_id": "114574123410576761539", "group_type": "GDG"}, {"status": "active", "site": "devsite", "street": "", "geo": {"lat": 28.635307999999998, "lng": 77.224959999999996}, "city": "New Delhi", "name": "GDG New Delhi", "country": "India", "chapter_id": "21", "state": "", "gplus_id": "114576537688641864561", "group_type": "GDG"}, {"status": "active", "site": "devsite", "street": "", "geo": {"lat": 37.745104599999998, "lng": -25.572074600000001}, "city": "Lagoa, S\u00e3o Miguel", "name": "GDG Azores", "country": "Portugal", "chapter_id": "", "state": "Azores", "gplus_id": "114610816112896399994", "group_type": "GDG"}, {"status": "active", "site": "devsite", "street": "", "geo": {"lat": -6.7765658999999996, "lng": -79.84648039999999}, "city": "Chiclayo", "name": "GDG Chiclayo", "country": "Peru", "chapter_id": "", "state": "", "gplus_id": "114638846192751581411", "group_type": "GDG"}, {"status": "active", "site": "devsite", "street": "", "geo": {"lat": 31.821448, "lng": 117.227271}, "city": "HEFEI", "name": "GDG Hefei", "country": "China", "chapter_id": "1213001", "state": "", "gplus_id": "114665061922064488837", "group_type": "GDG"}, {"status": "active", "site": "devsite", "street": "", "geo": {"lat": 39.952334999999998, "lng": -75.163789000000008}, "city": "Philadelphia", "name": "GDG Philadelphia", "country": "United States", "chapter_id": "", "state": "Pennsylvania", "gplus_id": "114727657292466806804", "group_type": "GDG"}, {"status": "active", "site": "devsite", "street": "", "geo": {"lat": -26.482220900000002, "lng": -49.073476999999997}, "city": "Jaragu\u00e1 do Sul", "name": "GDG Jaragu\u00e1 do Sul", "country": "Brazil", "chapter_id": "", "state": "SC", "gplus_id": "114767068998939804773", "group_type": "GDG"}, {"status": "active", "site": "devsite", "street": "", "geo": {"lat": 36.746842200000003, "lng": -119.7725868}, "city": "Fresno", "name": "GDG Fresno", "country": "United States", "chapter_id": "424001", "state": "CA", "gplus_id": "114769570436363155784", "group_type": "GDG"}, {"status": "active", "site": "devsite", "street": "", "geo": {"lat": -27.471010700000001, "lng": 153.02344890000001}, "city": "Brisbane", "name": "GDG Brisbane", "country": "Australia", "chapter_id": "", "state": "", "gplus_id": "114779130953129614383", "group_type": "GDG"}, {"status": "active", "site": "devsite", "street": "", "geo": {"lat": 31.326015200000001, "lng": 75.576182899999992}, "city": "Jalandhar", "name": "GDG Jalandhar", "country": "India", "chapter_id": "771007", "state": "", "gplus_id": "114790565755036483829", "group_type": "GDG"}, {"status": "active", "site": "devsite", "street": "", "geo": {"lat": 25.357522400000001, "lng": 55.3918648}, "city": "Sharjah", "name": "GDG Sharjah", "country": "United Arab Emirates", "chapter_id": "", "state": "", "gplus_id": "114853679727880166293", "group_type": "GDG"}, {"status": "active", "site": "devsite", "street": "", "geo": {"lat": 36.725310999999998, "lng": 9.1920020000000005}, "city": "Beja", "name": "GDG Beja", "country": "Tunisia", "chapter_id": "", "state": "", "gplus_id": "114860148921100610396", "group_type": "GDG"}, {"status": "incubating", "site": "devsite", "street": "", "geo": {"lat": -25.966666700000001, "lng": 32.5833333}, "city": "Maputo", "name": "GDG Maputo", "country": "Mozambique", "chapter_id": "", "state": "", "gplus_id": "114866320150074768018", "group_type": "GDG"}, {"status": "incubating", "site": "devsite", "street": "Akoka", "geo": {"lat": 6.5208130000000004, "lng": 3.3854646000000002}, "city": "Yaba", "name": "GDG Unilag", "country": "Nigeria", "chapter_id": "", "state": "Lagos", "gplus_id": "114875347726232723618", "group_type": "GDG"}, {"status": "active", "site": "devsite", "street": "", "geo": {"lat": 40.824418000000001, "lng": 114.88754299999999}, "city": "Zhangjiakou", "name": "GDG Zhangjiakou", "country": "China", "chapter_id": "", "state": "", "gplus_id": "114911793225988198469", "group_type": "GDG"}, {"status": "active", "site": "devsite", "street": "", "geo": {"lat": 23.129162999999998, "lng": 113.26443500000001}, "city": "Guangzhou", "name": "GDG Guangzhou", "country": "China", "chapter_id": "11", "state": "", "gplus_id": "114920001331857622210", "group_type": "GDG"}, {"status": "active", "site": "devsite", "street": "", "geo": {"lat": 34.882775799999997, "lng": -1.3166696}, "city": "Tlemcen", "name": "GDG Tlemcen", "country": "Algeria", "chapter_id": "", "state": "", "gplus_id": "114922920527535447518", "group_type": "GDG"}, {"status": "active", "site": "devsite", "street": "", "geo": {"lat": 34.341568000000002, "lng": 108.940175}, "city": "Xi'an", "name": "GDG Xi'an", "country": "China", "chapter_id": "13", "state": "", "gplus_id": "114935565019424673192", "group_type": "GDG"}, {"status": "active", "site": "devsite", "street": "", "geo": {"lat": 8.491655999999999, "lng": 4.5446419000000002}, "city": "Ilorin", "name": "GDG Unilorin", "country": "Nigeria", "chapter_id": "", "state": "Kwara", "gplus_id": "114945869531196995296", "group_type": "GDG"}, {"status": "active", "site": "devsite", "street": "", "geo": {"lat": 13.060422000000001, "lng": 80.249583000000001}, "city": "Chennai", "name": "GDG Chennai", "country": "India", "chapter_id": "972001", "state": "", "gplus_id": "114972274874706002296", "group_type": "GDG"}, {"status": "active", "site": "devsite", "street": "", "geo": {"lat": 37.566535000000002, "lng": 126.9779692}, "city": "Seoul", "name": "GDG Korea Android", "country": "South Korea", "chapter_id": "", "state": "", "gplus_id": "115078626730671785458", "group_type": "GDG"}, {"status": "active", "site": "devsite", "street": "", "geo": {"lat": -31.398929599999999, "lng": -64.182128899999995}, "city": "C\u00f3rdoba", "name": "GDG Cordoba", "country": "Argentina", "chapter_id": "1108001", "state": "", "gplus_id": "115109757247453512398", "group_type": "GDG"}, {"status": "active", "site": "devsite", "street": "", "geo": {"lat": 48.135125299999999, "lng": 11.5819806}, "city": "Muenchen", "name": "GDG Munich Android", "country": "Germany", "chapter_id": "New GDG", "state": "", "gplus_id": "115160714098008559164", "group_type": "GDG"}, {"status": "active", "site": "devsite", "street": "", "geo": {"lat": 48.1458923, "lng": 17.107137300000002}, "city": "Bratislava", "name": "GDG Bratislava", "country": "Slovakia", "chapter_id": "1044", "state": "", "gplus_id": "115200570829527654069", "group_type": "GDG"}, {"status": "active", "site": "devsite", "street": "", "geo": {"lat": -30.027704100000001, "lng": -51.228734600000003}, "city": "Porto Alegre", "name": "GDG Porto Alegre", "country": "Brazil", "chapter_id": "", "state": "RS", "gplus_id": "115208153258516101187", "group_type": "GDG"}, {"status": "active", "site": "devsite", "street": "", "geo": {"lat": 48.933333300000001, "lng": 38.5}, "city": "Severodonetsk", "name": "GDG Severodonetsk", "country": "Ukraine", "chapter_id": "", "state": "", "gplus_id": "115260333751535677595", "group_type": "GDG"}, {"status": "active", "site": "devsite", "street": "", "geo": {"lat": 32.085299900000003, "lng": 34.781767599999988}, "city": "Tel Aviv", "name": "GDG Israel Women", "country": "Israel", "chapter_id": "", "state": "", "gplus_id": "115311490359966632820", "group_type": "GDG"}, {"status": "active", "site": "devsite", "street": "Polanco", "geo": {"lat": 19.433333300000001, "lng": -99.199999999999989}, "city": "Mexico City", "name": "GDG Agencias", "country": "Mexico", "chapter_id": "", "state": "", "gplus_id": "115312672821910676785", "group_type": "GDG"}, {"status": "active", "site": "devsite", "street": "", "geo": {"lat": -31.632389100000001, "lng": -60.699459099999999}, "city": "Santa Fe", "name": "GDG Santa Fe", "country": "Argentina", "chapter_id": "384001", "state": "", "gplus_id": "115366164260856302313", "group_type": "GDG"}, {"status": "active", "site": "devsite", "street": "", "geo": {"lat": 21.033333299999999, "lng": 105.84999999999999}, "city": "Hanoi", "name": "GDG Hanoi", "country": "Vietnam", "chapter_id": "", "state": "", "gplus_id": "115379288713741614733", "group_type": "GDG"}, {"status": "active", "site": "devsite", "street": "", "geo": {"lat": 15.352029, "lng": 44.207456000000001}, "city": "Sana'a", "name": "GDG Sana'a", "country": "Yemen", "chapter_id": "", "state": "", "gplus_id": "115388958160187756455", "group_type": "GDG"}, {"status": "active", "site": "devsite", "street": "", "geo": {"lat": 29.848319199999999, "lng": 31.3368529}, "city": "Helwan", "name": "GDG Helwan", "country": "Egypt", "chapter_id": "", "state": "", "gplus_id": "115427621513744693301", "group_type": "GDG"}, {"status": "active", "site": "devsite", "street": "", "geo": {"lat": 30.572268999999999, "lng": 104.066541}, "city": "Chengdu", "name": "GDG Chengdu", "country": "China", "chapter_id": "", "state": "", "gplus_id": "115508453153648032576", "group_type": "GDG"}, {"status": "active", "site": "devsite", "street": "", "geo": {"lat": 39.7766667, "lng": 30.520555600000002}, "city": "Eski\u015fehir", "name": "GDG Eski\u015fehir", "country": "Turkey", "chapter_id": "", "state": "", "gplus_id": "115602346615910585045", "group_type": "GDG"}, {"status": "active", "site": "devsite", "street": "Andreasstra\u00dfe 10", "geo": {"lat": 52.512594, "lng": 13.431108}, "city": "Berlin", "name": "GDG Berlin", "country": "Germany", "chapter_id": "1009", "state": "", "gplus_id": "115635340252753847571", "group_type": "GDG"}, {"status": "active", "site": "devsite", "street": "", "geo": {"lat": 32.060254999999998, "lng": 118.79687699999999}, "city": "Nanjing", "name": "GDG Nanjing", "country": "China", "chapter_id": "1171006", "state": "", "gplus_id": "115699391295509082719", "group_type": "GDG"}, {"status": "active", "site": "devsite", "street": "", "geo": {"lat": 36.166332799999999, "lng": 1.3335513999999999}, "city": "Chlef", "name": "GDG Chlef", "country": "Algeria", "chapter_id": "New GDG", "state": "", "gplus_id": "115722350155081068544", "group_type": "GDG"}, {"status": "incubating", "site": "devsite", "street": "", "geo": {"lat": -23.501529900000001, "lng": -47.452560299999988}, "city": "Sorocaba", "name": "GDG Sorocaba", "country": "Brazil", "chapter_id": "", "state": "SP", "gplus_id": "115753266803068111547", "group_type": "GDG"}, {"status": "active", "site": "devsite", "street": "", "geo": {"lat": -1.9501059999999999, "lng": 30.058769000000002}, "city": "Kigali", "name": "GDG Kigali", "country": "Rwanda", "chapter_id": "1129011", "state": "", "gplus_id": "115773026353111253942", "group_type": "GDG"}, {"status": "active", "site": "devsite", "street": "", "geo": {"lat": 51.656887400000002, "lng": 39.202533899999999}, "city": "Voronezh", "name": "GDG Voronezh", "country": "Russia", "chapter_id": "28002", "state": "", "gplus_id": "115788303479220573295", "group_type": "GDG"}, {"status": "active", "site": "devsite", "street": "", "geo": {"lat": 46.489999999999988, "lng": -81.009999999999991}, "city": "Sudbury", "name": "GDG Sudbury", "country": "Canada", "chapter_id": "", "state": "Ontario", "gplus_id": "115803993493374365281", "group_type": "GDG"}, {"status": "active", "site": "devsite", "street": "", "geo": {"lat": 31.252973000000001, "lng": 34.791462000000003}, "city": "Be'er Sheva", "name": "GDG Beer Sheva", "country": "Israel", "chapter_id": "", "state": "", "gplus_id": "115824198132464916191", "group_type": "GDG"}, {"status": "active", "site": "devsite", "street": "", "geo": {"lat": 37.639097199999988, "lng": -120.9968782}, "city": "Modesto", "name": "GDG Modesto", "country": "United States", "chapter_id": "", "state": "California", "gplus_id": "115831812831073891815", "group_type": "GDG"}, {"status": "active", "site": "devsite", "street": "", "geo": {"lat": 8.1333333000000003, "lng": 4.25}, "city": "Ogbomosho", "name": "GDG LAUTECH", "country": "Nigeria", "chapter_id": "", "state": "Oya", "gplus_id": "115846222497242868131", "group_type": "GDG"}, {"status": "active", "site": "devsite", "street": "", "geo": {"lat": 28.635307999999998, "lng": 77.224959999999996}, "city": "New Delhi", "name": "GDG BVP", "country": "India", "chapter_id": "1133006", "state": "", "gplus_id": "115886112560887475581", "group_type": "GDG"}, {"status": "active", "site": "devsite", "street": "", "geo": {"lat": 36.648549600000003, "lng": 138.19424319999999}, "city": "Nagano", "name": "GDG Shinshu", "country": "Japan", "chapter_id": "", "state": "Nagano", "gplus_id": "115972055730249971330", "group_type": "GDG"}, {"status": "active", "site": "devsite", "street": "", "geo": {"lat": 39.114052999999998, "lng": -94.627463599999999}, "city": "Kansas City", "name": "GDG Kansas City", "country": "United States", "chapter_id": "", "state": "KS", "gplus_id": "116015988631052616691", "group_type": "GDG"}, {"status": "active", "site": "devsite", "street": "", "geo": {"lat": -12.0478158, "lng": -77.062202799999994}, "city": "Lima", "name": "GDG Open Lima", "country": "Peru", "chapter_id": "", "state": "", "gplus_id": "116021360471772072148", "group_type": "GDG"}, {"status": "active", "site": "devsite", "street": "", "geo": {"lat": 48.464717, "lng": 35.046182999999999}, "city": "Dnipropetrovsk", "name": "GDG Dnipropetrovsk", "country": "Ukraine", "chapter_id": "43004", "state": "", "gplus_id": "116033068768596939209", "group_type": "GDG"}, {"status": "active", "site": "devsite", "street": "", "geo": {"lat": 38.907230899999988, "lng": -77.036464100000003}, "city": "Washington, DC", "name": "GDG Washington DC", "country": "United States", "chapter_id": "43007", "state": "DC", "gplus_id": "116047476115208123051", "group_type": "GDG"}, {"status": "active", "site": "devsite", "street": "", "geo": {"lat": 50.450099999999999, "lng": 30.523399999999999}, "city": "Kyiv", "name": "GDG KPI", "country": "Ukraine", "chapter_id": "", "state": "", "gplus_id": "116061413353713362213", "group_type": "GDG"}, {"status": "active", "site": "devsite", "street": "", "geo": {"lat": 35.011636299999999, "lng": 135.76802939999999}, "city": "Kyoto", "name": "GDG Kyoto", "country": "Japan", "chapter_id": "22", "state": "", "gplus_id": "116129315311979954039", "group_type": "GDG"}, {"status": "active", "site": "devsite", "street": "", "geo": {"lat": 20.6596492, "lng": -103.3496251}, "city": "Guadalajara", "name": "GDG Guadalajara", "country": "Mexico", "chapter_id": "", "state": "", "gplus_id": "116137241171711738327", "group_type": "GDG"}, {"status": "active", "site": "devsite", "street": "", "geo": {"lat": 33.748995399999998, "lng": -84.387982399999999}, "city": "Atlanta", "name": "GDG Atlanta", "country": "United States", "chapter_id": "", "state": "Georgia", "gplus_id": "116177506899373607491", "group_type": "GDG"}, {"status": "active", "site": "devsite", "street": "", "geo": {"lat": 10.5910089, "lng": -62.927947000000003}, "city": "Guayana", "name": "GDG Guayana", "country": "Venezuela", "chapter_id": "819003", "state": "", "gplus_id": "116214474852140427630", "group_type": "GDG"}, {"status": "active", "site": "devsite", "street": "", "geo": {"lat": 32.514946899999998, "lng": -117.03824710000001}, "city": "Tijuana", "name": "GDG Tijuana", "country": "Mexico", "chapter_id": "926004", "state": "", "gplus_id": "116218570219789166551", "group_type": "GDG"}, {"status": "incubating", "site": "devsite", "street": "", "geo": {"lat": 12.65, "lng": -8.0}, "city": "Bamako", "name": "GDG Bamako", "country": "Mali", "chapter_id": "", "state": "", "gplus_id": "116265522861026132901", "group_type": "GDG"}, {"status": "active", "site": "devsite", "street": "", "geo": {"lat": 39.469907499999998, "lng": -0.37628810000000001}, "city": "Valencia", "name": "GDG Valencia", "country": "Spain", "chapter_id": "", "state": "", "gplus_id": "116293275669380237550", "group_type": "GDG"}, {"status": "active", "site": "devsite", "street": "", "geo": {"lat": 41.878113599999999, "lng": -87.629798199999996}, "city": "Chicago", "name": "GDG Chicago", "country": "United States", "chapter_id": "", "state": "IL", "gplus_id": "116342852249328662050", "group_type": "GDG"}, {"status": "active", "site": "devsite", "street": "", "geo": {"lat": 22.543099000000002, "lng": 114.057868}, "city": "Shenzzhen", "name": "GDG Shenzhen", "country": "China", "chapter_id": "578001", "state": "", "gplus_id": "116409718883299342983", "group_type": "GDG"}, {"status": "incubating", "site": "devsite", "street": "", "geo": {"lat": -23.207322000000001, "lng": -45.952796999999997}, "city": "Vale do Para\u00edba", "name": "GDG Vale do Para\u00edba", "country": "Brazil", "chapter_id": "", "state": "SP", "gplus_id": "116448700234030233197", "group_type": "GDG"}, {"status": "active", "site": "devsite", "street": "", "geo": {"lat": 56.162939000000001, "lng": 10.203920999999999}, "city": "Aarhus", "name": "GDG Aarhus", "country": "Denmark", "chapter_id": "", "state": "", "gplus_id": "116456904479291076991", "group_type": "GDG"}, {"status": "active", "site": "devsite", "street": "", "geo": {"lat": 42.331426999999998, "lng": -83.0457538}, "city": "Detroit", "name": "GDG Detroit", "country": "United States", "chapter_id": "1124001", "state": "MI", "gplus_id": "116487477821397039229", "group_type": "GDG"}, {"status": "active", "site": "devsite", "street": "", "geo": {"lat": 10.315699199999999, "lng": 123.88543660000001}, "city": "Cebu", "name": "GDG Cebu", "country": "Philippines", "chapter_id": "", "state": "", "gplus_id": "116488685812814512345", "group_type": "GDG"}, {"status": "incubating", "site": "devsite", "street": "", "geo": {"lat": -3.7318615999999998, "lng": -38.5266704}, "city": "Fortaleza", "name": "GDG Fortaleza", "country": "Brazil", "chapter_id": "", "state": "CE", "gplus_id": "116566149088641717001", "group_type": "GDG"}, {"status": "active", "site": "devsite", "street": "", "geo": {"lat": 37.566535000000002, "lng": 126.9779692}, "city": "Seoul", "name": "GDG Seoul", "country": "South Korea", "chapter_id": "1214004", "state": "", "gplus_id": "116593433820963567116", "group_type": "GDG"}, {"status": "active", "site": "devsite", "street": "1 Hawk Drive", "geo": {"lat": 41.740432400000003, "lng": -74.086810900000003}, "city": "New Paltz", "name": "GDG Hudson Valley", "country": "United States", "chapter_id": "", "state": "NY", "gplus_id": "116637480947982055865", "group_type": "GDG"}, {"status": "active", "site": "devsite", "street": "", "geo": {"lat": 31.9565783, "lng": 35.945695100000002}, "city": "Amman", "name": "GDG WISE University", "country": "Jordan", "chapter_id": "", "state": "", "gplus_id": "116638475004395157097", "group_type": "GDG"}, {"status": "active", "site": "devsite", "street": "", "geo": {"lat": 31.522561, "lng": 34.453592999999998}, "city": "Gaza", "name": "GDG Gaza", "country": "Palestine", "chapter_id": "369001", "state": "", "gplus_id": "116730078253386044390", "group_type": "GDG"}, {"status": "active", "site": "devsite", "street": "", "geo": {"lat": 33.0, "lng": -7.6166666999999997}, "city": "Settat", "name": "GDG SETTAT", "country": "Morocco", "chapter_id": "", "state": "", "gplus_id": "116781374290268208620", "group_type": "GDG"}, {"status": "active", "site": "devsite", "street": "", "geo": {"lat": 14.624795000000001, "lng": -90.532817999999992}, "city": "Guatemala City", "name": "GDG Guatemala", "country": "Guatemala", "chapter_id": "332002", "state": "", "gplus_id": "116869685523331873031", "group_type": "GDG"}, {"status": "active", "site": "devsite", "street": "", "geo": {"lat": 18.520430300000001, "lng": 73.856743699999996}, "city": "Pune,Maharashtra", "name": "GDG Pune", "country": "India", "chapter_id": "", "state": "Maharashtra", "gplus_id": "117099251731858299644", "group_type": "GDG"}, {"status": "active", "site": "devsite", "street": "", "geo": {"lat": 39.103118199999997, "lng": -84.512019600000002}, "city": "Cincinnati", "name": "GDG Cincinnati", "country": "United States", "chapter_id": "", "state": "Ohio", "gplus_id": "117137315626535078562", "group_type": "GDG"}, {"status": "active", "site": "devsite", "street": "", "geo": {"lat": 30.733314799999999, "lng": 76.779417899999999}, "city": "Chandigarh", "name": "GDG Chandigarh", "country": "India", "chapter_id": "1100003", "state": "", "gplus_id": "117167614059752440390", "group_type": "GDG"}, {"status": "active", "site": "devsite", "street": "", "geo": {"lat": 26.559073699999999, "lng": 31.695670499999999}, "city": "Sohag", "name": "GDG Sohag", "country": "Egypt", "chapter_id": "", "state": "", "gplus_id": "117172213339114119917", "group_type": "GDG"}, {"status": "active", "site": "devsite", "street": "", "geo": {"lat": 37.388096099999999, "lng": -5.9823298999999999}, "city": "Sevilla", "name": "GDG Sevilla", "country": "Spain", "chapter_id": "", "state": "Andalucia", "gplus_id": "117186888160178861350", "group_type": "GDG"}, {"status": "active", "site": "devsite", "street": "", "geo": {"lat": 32.776565599999998, "lng": -79.930921599999991}, "city": "Charleston", "name": "GDG Charleston", "country": "United States", "chapter_id": "", "state": "South Carolina", "gplus_id": "117234778562306975670", "group_type": "GDG"}, {"status": "active", "site": "devsite", "street": "", "geo": {"lat": 48.135125299999999, "lng": 11.5819806}, "city": "Munich", "name": "GDG Munich", "country": "Germany", "chapter_id": "1011", "state": "", "gplus_id": "117253870280078392257", "group_type": "GDG"}, {"status": "active", "site": "devsite", "street": "", "geo": {"lat": 36.114646, "lng": -115.172816}, "city": "Las Vegas", "name": "GDG Las Vegas", "country": "United States", "chapter_id": "", "state": "Nevada", "gplus_id": "117264806348841923180", "group_type": "GDG"}, {"status": "incubating", "site": "devsite", "street": "", "geo": {"lat": -38.952444399999997, "lng": -68.064138900000003}, "city": "Neuqu\u00e9n", "name": "GDG Neuqu\u00e9n", "country": "Argentina", "chapter_id": "", "state": "", "gplus_id": "117268607113560374334", "group_type": "GDG"}, {"status": "active", "site": "devsite", "street": "", "geo": {"lat": 34.707130100000001, "lng": 33.022617400000001}, "city": "Limassol", "name": "GDG Cyprus", "country": "Cyprus", "chapter_id": "", "state": "", "gplus_id": "117335552237012474473", "group_type": "GDG"}, {"status": "active", "site": "devsite", "street": "", "geo": {"lat": -36.848459699999999, "lng": 174.76333149999999}, "city": "Auckland", "name": "GDG Auckland", "country": "New Zealand", "chapter_id": "982001", "state": "", "gplus_id": "117530088719734462383", "group_type": "GDG"}, {"status": "incubating", "site": "devsite", "street": "", "geo": {"lat": 25.655235300000001, "lng": -100.3144976}, "city": "Monterrey", "name": "GDG Monterrey", "country": "Mexico", "chapter_id": "", "state": "Jalisco", "gplus_id": "117540886576474322118", "group_type": "GDG"}, {"status": "active", "site": "devsite", "street": "", "geo": {"lat": 7.4707060000000007, "lng": 4.5566490000000002}, "city": "Ife", "name": "GDG OAU", "country": "Nigeria", "chapter_id": "", "state": "", "gplus_id": "117566302802057841704", "group_type": "GDG"}, {"status": "active", "site": "devsite", "street": "Bidyadharpur Arilo, Govindpur", "geo": {"lat": 20.4548053, "lng": 85.806131399999998}, "city": "Cuttak", "name": "GDG Sri Sri University", "country": "India", "chapter_id": "", "state": "Odisha", "gplus_id": "117599472848340059730", "group_type": "GDG"}, {"status": "active", "site": "devsite", "street": "Meiring Naud\u00e9 Road, Brummeria", "geo": {"lat": -25.753154800000001, "lng": 28.274677000000001}, "city": "Pretoria", "name": "GDG Pretoria", "country": "South Africa", "chapter_id": "1144008", "state": "Gauteng", "gplus_id": "117599647232533838312", "group_type": "GDG"}, {"status": "active", "site": "devsite", "street": "", "geo": {"lat": -26.915999100000001, "lng": -49.0713838}, "city": "Blumenau", "name": "GDG Blumenau", "country": "Brazil", "chapter_id": "", "state": "SC", "gplus_id": "117615665523017088181", "group_type": "GDG"}, {"status": "active", "site": "devsite", "street": "2nd Avenue Ridge", "geo": {"lat": 5.5603487999999999, "lng": -0.1829327}, "city": "Accra", "name": "GDG Ghana", "country": "Ghana", "chapter_id": "63002", "state": "", "gplus_id": "117620641470438104052", "group_type": "GDG"}, {"status": "active", "site": "devsite", "street": "", "geo": {"lat": 30.267153, "lng": -97.743060799999995}, "city": "Austin", "name": "GDG Austin", "country": "United States", "chapter_id": "33", "state": "TX", "gplus_id": "117635509141852388558", "group_type": "GDG"}, {"status": "incubating", "site": "devsite", "street": "Universidad Catolica", "geo": {"lat": -33.499206299999997, "lng": -70.615489699999998}, "city": "Santiago", "name": "GDG Santiago", "country": "Chile", "chapter_id": "", "state": "", "gplus_id": "117659368976828045391", "group_type": "GDG"}, {"status": "active", "site": "devsite", "street": "", "geo": {"lat": 37.766594699999999, "lng": -120.8471545}, "city": "Oakdale", "name": "GDG Oakdale", "country": "United States", "chapter_id": "", "state": "CA", "gplus_id": "117677091518865462359", "group_type": "GDG"}, {"status": "incubating", "site": "devsite", "street": "", "geo": {"lat": 9.0336800000000004, "lng": 7.6005786000000004}, "city": "Karu", "name": "GDG Bingham University", "country": "Nigeria", "chapter_id": "", "state": "Abuja", "gplus_id": "117679563240292641304", "group_type": "GDG"}, {"status": "active", "site": "devsite", "street": "", "geo": {"lat": -10.909151100000001, "lng": -37.074454199999998}, "city": "Aracaju", "name": "GDG Aracaju", "country": "Brazil", "chapter_id": "", "state": "SE", "gplus_id": "117712497785310292400", "group_type": "GDG"}, {"status": "active", "site": "devsite", "street": "", "geo": {"lat": 47.3686498, "lng": 8.539182499999999}, "city": "Z\u00fcrich", "name": "GDG Z\u00fcrich", "country": "Switzerland", "chapter_id": "27002", "state": "", "gplus_id": "117715978948849333403", "group_type": "GDG"}, {"status": "active", "site": "devsite", "street": "", "geo": {"lat": 43.604652000000002, "lng": 1.4442090000000001}, "city": "Toulouse", "name": "GDG Toulouse Android", "country": "France", "chapter_id": "", "state": "", "gplus_id": "117732835400777918591", "group_type": "GDG"}, {"status": "active", "site": "devsite", "street": "", "geo": {"lat": 44.4056499, "lng": 8.946256}, "city": "Genova", "name": "GDG Genova", "country": "Italy", "chapter_id": "", "state": "", "gplus_id": "117774146664629729620", "group_type": "GDG"}, {"status": "active", "site": "devsite", "street": "", "geo": {"lat": 39.223841100000001, "lng": 9.1216612999999995}, "city": "Cagliari", "name": "GDG Sardegna", "country": "Italy", "chapter_id": "1137006", "state": "", "gplus_id": "117782484864607288527", "group_type": "GDG"}, {"status": "active", "site": "devsite", "street": "Th\u00e1kurova 9, Praha", "geo": {"lat": 50.104005600000001, "lng": 14.3899311}, "city": "Prague", "name": "GDG \u010cVUT Prague", "country": "Czech Republic", "chapter_id": "", "state": "", "gplus_id": "117819266709320995508", "group_type": "GDG"}, {"status": "active", "site": "devsite", "street": "", "geo": {"lat": -16.398822200000001, "lng": -71.536886100000004}, "city": "Arequipa", "name": "GDG Arequipa", "country": "Peru", "chapter_id": "", "state": "", "gplus_id": "117950001026140632430", "group_type": "GDG"}, {"status": "incubating", "site": "devsite", "street": "", "geo": {"lat": 27.920220199999999, "lng": -15.5474373}, "city": "Las Palmas de Gran Canaria", "name": "GDG Gran Canaria", "country": "Spain", "chapter_id": "", "state": "Gran Canaria", "gplus_id": "118027875298659982093", "group_type": "GDG"}, {"status": "active", "site": "devsite", "street": "", "geo": {"lat": 37.508038599999999, "lng": 15.0828512}, "city": "Catania", "name": "GDG Catania", "country": "Italy", "chapter_id": "183001", "state": "", "gplus_id": "118102220008611585984", "group_type": "GDG"}, {"status": "active", "site": "devsite", "street": "", "geo": {"lat": 8.4916666999999997, "lng": 8.5166667}, "city": "Lafia", "name": "GDG Lafia", "country": "Nigeria", "chapter_id": "", "state": "Nasarawa", "gplus_id": "118120768718238554452", "group_type": "GDG"}, {"status": "active", "site": "devsite", "street": "", "geo": {"lat": 43.135650299999988, "lng": 13.068325400000001}, "city": "Camerino", "name": "GDG Camerino", "country": "Italy", "chapter_id": "", "state": "", "gplus_id": "118137135858143918205", "group_type": "GDG"}, {"status": "active", "site": "devsite", "street": "", "geo": {"lat": 36.079976500000001, "lng": 4.8105954999999998}, "city": "Universit\u00e9 EL Bachir El Ibrahimi BBA", "name": "GDG Bordj", "country": "Algeria", "chapter_id": "", "state": "Bordj Bou Arreridj", "gplus_id": "118220926206626726295", "group_type": "GDG"}, {"status": "active", "site": "devsite", "street": "", "geo": {"lat": 25.271139000000002, "lng": 55.307485}, "city": "Dubai", "name": "GDG Dubai", "country": "United Arab Emirates", "chapter_id": "642001", "state": "", "gplus_id": "118224476608145518667", "group_type": "GDG"}, {"status": "active", "site": "devsite", "street": "", "geo": {"lat": 17.962769000000002, "lng": 102.614429}, "city": "Vientiane", "name": "GDG Vientiane", "country": "Laos", "chapter_id": "1137002", "state": "", "gplus_id": "118282269875743492487", "group_type": "GDG"}, {"status": "active", "site": "devsite", "street": "", "geo": {"lat": 33.590354699999999, "lng": 130.40171549999999}, "city": "Fukuoka", "name": "GDG Kyushu", "country": "Japan", "chapter_id": "780005", "state": "", "gplus_id": "118326576983856530375", "group_type": "GDG"}, {"status": "active", "site": "devsite", "street": "", "geo": {"lat": 40.851774599999999, "lng": 14.2681244}, "city": "Naples", "name": "GDG Campania", "country": "Italy", "chapter_id": "973010", "state": "", "gplus_id": "118330453895116582842", "group_type": "GDG"}, {"status": "incubating", "site": "devsite", "street": "", "geo": {"lat": 48.135125299999999, "lng": 11.5819806}, "city": "Munich", "name": "GDG Munich Golang", "country": "Germany", "chapter_id": "", "state": "Bavaria", "gplus_id": "118437453443992444509", "group_type": "GDG"}, {"status": "active", "site": "devsite", "street": "", "geo": {"lat": 6.9270785999999998, "lng": 79.861243000000002}, "city": "Colombo", "name": "GDG Sri Lanka", "country": "Sri Lanka", "chapter_id": "27", "state": "", "gplus_id": "118444516760608140335", "group_type": "GDG"}], "success": true}